stop_id,stop_name,stop_desc,stop_lat,stop_lon,stop_url,location_type,parent_station
10000001,"Antrim, Antrim Train Station",,54.7182408441,-6.21189080362,,,
10000002,"Gransha (Islandmagee), Ballycarry Train Station",,54.777270646,-5.72568089846,,,
10000003,"Ballymena, Ballymena Train Station",,54.8638039051,-6.28443934742,,,
10000004,"Ballymoney, Ballymoney Train Station",,55.0666245922,-6.5141235811,,,
10000005,"Bangor, Bangor Train Station",,54.6590415377,-5.6707176913,,,
10000006,"Bangor, Bangor West Train Station",,54.6597230517,-5.69317289333,,,
10000007,"Windsor, Adelaide Train Station",,54.5784040728,-5.95494746963,,,
10000008,"Balmoral, Balmoral Train Station",,54.5687470476,-5.9685161847,,,
10000009,"Botanic, Botanic Train Station",,54.5884334729,-5.93273411026,,,
10000010,"Titanic Quarter, Titanic Quarter Train Station",,54.6018651463,-5.90637255483,,,
10000011,"Belfast City Centre, Belfast Central Train Station",,54.5955296728,-5.91733062031,,,
10000012,"Belfast City Hospital, City Hospital Train Station",,54.5887635704,-5.9415534444,,,
10000013,"Belfast City Centre, Great Victoria Street Train Station",,54.5941386658,-5.93632972143,,,
10000014,"Sydenham, Sydenham Train Station",,54.6095517127,-5.87660715979,,,
10000015,"Duncairn, Yorkgate Train Station",,54.6104789563,-5.92226489383,,,
10000016,"Aghanloo, Bellarena Train Station",,55.1263157567,-6.9524965591,,,
10000017,"North Down, Carnalea Train Station",,54.6660591245,-5.70594633888,,,
10000018,"Carrickfergus, Carrickfergus Train Station",,54.7174145748,-5.80951203378,,,
10000019,"Castlerock, Castlerock Train Station",,55.1652951025,-6.78713369965,,,
10000020,"Carrickfergus, Clipperstown Train Station",,54.7175998632,-5.81828872911,,,
10000021,"Coleraine, Coleraine Train Station",,55.1338213382,-6.66265694777,,,
10000022,"Willowfield (Coleraine), Coleraine University Train Station",,55.1503992385,-6.66844095005,,,
10000023,"Cultra, Cultra Train Station",,54.6522479254,-5.80497567407,,,
10000024,"Derriaghy, Derriaghy Train Station",,54.5416509593,-6.01831956869,,,
10000025,"Carrickfergus, Downshire Train Station",,54.720982533,-5.79070446443,,,
10000026,"Dunmurry, Dunmurry Train Station",,54.5530136587,-6.0032198584,,,
10000027,"Finaghy, Finaghy Train Station",,54.5637113804,-5.98661333269,,,
10000028,"Glynn, Glynn Train Station",,54.8268645325,-5.80688876383,,,
10000029,"Greenisland, Greenisland Train Station",,54.7001325515,-5.87307194095,,,
10000030,"Helens Bay, Helen's Bay Train Station",,54.6663571722,-5.74092417341,,,
10000031,"Hilden, Hilden Train Station",,54.52209863,-6.02950957685,,,
10000032,"Holywood, Holywood Train Station",,54.6414906103,-5.83896296025,,,
10000033,"Jordanstown, Jordanstown Train Station",,54.6869130875,-5.89521691382,,,
10000034,"Lambeg, Lambeg Train Station",,54.5296430261,-6.02977965551,,,
10000035,"Larne, Larne Harbour Train Station",,54.8478912852,-5.79880182177,,,
10000036,"Larne, Larne Train Station",,54.8500763782,-5.81379063825,,,
10000037,"Waterside, Londonderry Train Station",,54.9919330087,-7.31364869615,,,
10000038,"Lisburn, Lisburn Train Station",,54.5138998727,-6.04539676079,,,
10000039,"Lurgan, Lurgan Train Station",,54.4672079888,-6.33811767701,,,
10000040,"Magheramorne, Magheramorne Train Station",,54.815422191,-5.76735950321,,,
10000041,"Cultra, Marino Train Station",,54.6468317111,-5.81757241964,,,
10000042,"Moira, Moira Train Station",,54.4919717107,-6.21440352269,,,
10000043,"Mossley, Mossley West Train Station",,54.6967684353,-5.95112226206,,,
10000044,"Newry, Newry Train Station",,54.1886692191,-6.36258237575,,,
10000045,"Portadown, Portadown Train Station",,54.4242672342,-6.44656410574,,,
10000046,"Portrush, Dhu Varren Train Station",,55.1962503366,-6.66109973428,,,
10000047,"Portrush, Portrush Train Station",,55.203467378,-6.6531280581,,,
10000048,"Poyntzpass, Poyntzpass Train Station",,54.2932500157,-6.37203102866,,,
10000049,"Scarva, Scarva Train Station",,54.3316317579,-6.36670159379,,,
10000050,"Seahill, Seahill Train Station",,54.660718163,-5.76833587838,,,
10000051,"Carrickfergus, Trooperslane Train Station",,54.7102547635,-5.84930675925,,,
10000052,"Whiteabbey, Whiteabbey Train Station",,54.672327308,-5.90454675966,,,
10000053,"Whitehead, Whitehead Train Station",,54.7525469105,-5.70944751935,,,
10000054,"Cullybackey, Cullybackey Train Station",,54.8878818319,-6.34433441682,,,
10000055,"Belfast City Centre, Pottingers Entry High Street",,54.6000288537,-5.92655860348,,,
10000056,"Belfast City Centre, Ormeau Road",,54.5929647627,-5.93021404603,,,
10000057,"Belfast City Centre, Donegall Square North",,54.5973442485,-5.93090506133,,,
10000059,"Belfast City Centre, Royal Avenue Tesco",,54.5998222376,-5.93076389492,,,
10000061,"Boom Hall, Steelstown Chapel",,55.0273980795,-7.30777201175,,,
10000062,"Boom Hall, Tara Park",,55.0290897761,-7.30664798751,,,
10000091,"Dundalk, Dundalk Rail Halt",,54.000546423,-6.41288644042,,,
10000092,"Drogheda Train Stn, Drogheda Rail Station",,53.7119481735,-6.3353275066,,,
10000093,"Dublin City, Connolly Rail Station",,53.3513618661,-6.25007426705,,,
10000094,"Balbriggan, Balbriggan Rail Halt",,53.6116926377,-6.18281372446,,,
10000095,"Skerries (Dublin), Skerries Rail Halt",,53.574254754,-6.11922902995,,,
10000101,"Ballynahinch, Millbrook Drive",,54.3976167487,-5.88382881898,,,
10000102,"Ballynahinch, Riverside Road",,54.4044560712,-5.91585851936,,,
10000103,"Ballynahinch, Kinedale Cottages",,54.4061105404,-5.91070606232,,,
10000104,"Ballynahinch, Langley Road",,54.4114526113,-5.90262255812,,,
10000105,"Dundonald, Old Mill Dale",,54.5912235531,-5.77781823327,,,
10000106,"Dundonald, Coopers Mill Park",,54.588878086,-5.78125766926,,,
10000107,"Ballynahinch, Carlisle Avenue",,54.39872689,-5.88717576108,,,
10000108,"Dundonald, Old Mill Park",,54.5900975046,-5.77865334422,,,
10000109,"Gilnahirk, Leven Drive",,54.5862633209,-5.82884369648,,,
10000110,"Dundonald, Old Mill Grove",,54.5925109203,-5.77695880916,,,
10000112,"Hillsborough, Old Dromore Road",,54.4428255795,-6.11285052819,,,
10000113,"Downpatrick, Down Business Park",,54.3449058054,-5.73341327761,,,
10000115,"Moyad, Bog Road",,54.1138146053,-6.0384671396,,,
10000117,"Carnmoney, Moss Road",,54.6843963523,-5.96033877709,,,
10000121,"Laurelhill, Ballymacash Crossroads",,54.525167078,-6.0749400715,,,
10000123,"Balmoral, Musgrave Park Hospital",,54.5671706511,-5.97580193995,,,
10000130,"Bush, Tamnamore Park and Ride",,54.4965572429,-6.65208458805,,,
10000131,"Derriaghy, Lambeg Road",,54.5320940943,-6.019184461,,,
10000132,"Newcastle, lay-by outside Station",,54.2149259636,-5.88876683551,,,
10000133,"Lisburn, Smithfield Street Bus Shelter",,54.5096775503,-6.04715828572,,,
10000134,"Ballymena, George Street",,54.8653216542,-6.27929598546,,,
10000137,"Poleglass, Pantridge Road",,54.5633182597,-6.02656292831,,,
10000138,"Newcastle, Bracken Avenue",,54.2232872992,-5.89149966772,,,
10000139,"Bessbrook, Camlough Road",,54.1872653609,-6.37371645216,,,
10000140,"Larne, Sanda Drive",,54.8642278045,-5.8468187803,,,
10000141,"Larne, Walnut Road",,54.8623894142,-5.84906676967,,,
10000142,"Larne, Lindara Estate",,54.8564339564,-5.84365133998,,,
10000143,"Larne, Lindara Estate",,54.8576813947,-5.84557873149,,,
10000144,"Larne, Lindara Estate",,54.8603316269,-5.84755612889,,,
10000145,"Eglinton, Primary School",,55.0246142965,-7.18201755585,,,
10000146,"Eglinton, Woodvale Road",,55.0245530933,-7.18226903167,,,
10000147,"Eglinton, Dellwood",,55.0241095796,-7.18044827734,,,
10000148,"Eglinton, Brookview Glen",,55.0195755475,-7.18093170541,,,
10000150,"Kilfennan, Crescent Link Police Station",,54.9894661397,-7.29237754496,,,
10000151,"Killaloo, Burntollet Bridge",,54.9400711764,-7.21529103578,,,
10000153,"Claudy, St Colmcille's Primary School",,54.9127170508,-7.16215765018,,,
10000155,"Derry~Londonderry Centre, Strand Bar",,54.9996806712,-7.32217518798,,,
10000156,"Armagh, outside Buscentre",,54.3509837712,-6.65382337071,,,
10000157,"Kilfennan, Church Meadow",,54.9964484654,-7.28950410131,,,
10000158,"Killaloo, Glenshane Road",,54.9273442897,-7.19538154428,,,
10000159,"Killaloo, Glenshane Road Brackfield",,54.9320000159,-7.20518115505,,,
10000160,"Claudy, Gortnaran Road",,54.9185999798,-7.18028536853,,,
10000161,"Ballymagorry, Woodend Road",,54.8515647074,-7.4321395609,,,
10000162,"Ballymagorry, B49 Woodend Road",,54.8469783869,-7.44290076571,,,
10000163,"Maydown, Maydown Industrial Estate",,55.028000457,-7.25312914474,,,
10000164,"Gransha (Londonderry), Culmore Road",,55.0301879923,-7.29605544781,,,
10000165,"Gransha (Londonderry), Springfield Road",,55.0346304144,-7.28441729368,,,
10000166,"Springfield (Londonderry), Alder Road",,55.0387401257,-7.27744471238,,,
10000167,"Tullyardan, Templeard",,55.0479485716,-7.27429010362,,,
10000168,"Ballynagard, Cloncool Park",,55.0460859163,-7.28749906931,,,
10000169,"Culmore, Clonliffe Park",,55.0504475729,-7.26402590432,,,
10000170,"Boom Hall, St Peter's Church",,55.0232618898,-7.30562259481,,,
10000171,"Belfast City Centre, Smithfield Square",,54.6016070153,-5.93370735599,,,
10000172,"Ballymagrorty, Coshquin",,55.0332573017,-7.35714840138,,,
10000173,"Kilderry, Wheatfield",,55.0709310007,-7.2682532577,,,
10000174,"Kilderry, Muff Main Street",,55.0674136569,-7.26902195356,,,
10000175,"Bridge End, Bridgend",,55.0413576542,-7.38069058961,,,
10000176,"Kilfennan, Crescent Link",,55.0008875928,-7.27590569644,,,
10000177,"Kilfennan, Sevenoaks",,54.9925619262,-7.277946446,,,
10000178,"Kilderry, Liberty Bridge",,55.0644888491,-7.26971710516,,,
10000181,"Burnfoot, Burnfoot",,55.0577120226,-7.40460488401,,,
10000182,"Skeoge Road, Skeoge Road",,55.0497548869,-7.39431641515,,,
10000183,"Tooban, Tooban",,55.0653313588,-7.43101130456,,,
10000184,"Castlequarter, Cyclists Rest",,55.0741855686,-7.44562022551,,,
10000185,"Glebe Large, Fahan Rectory",,55.0800488232,-7.45678351615,,,
10000186,"Lisfannon, Lisfannon Strand",,55.098126045,-7.47743917881,,,
10000187,"Lisfannon, North West Golf Club",,55.1126414513,-7.46424081214,,,
10000188,"Lisfannon, Inishowen Gateway",,55.1246793768,-7.45586432462,,,
10000189,"Buncrana, St Marys Road",,55.1361642993,-7.45650792853,,,
10000191,"Carrickmacross, South By-Pass",,53.9710522793,-6.70189063917,,,
10000197,"Buncrana, Shorefront",,55.1302531413,-7.46068078913,,,
10000198,"Ballygally, 316 Coast Road",,54.9026859566,-5.86741054138,,,
10000199,"Ballygally, 332 Coast Road",,54.9038147532,-5.87028283473,,,
10000200,"Ballygally, 288 Coast Road",,54.900674414,-5.86391457803,,,
10000201,"Ballygally, 266 Coast Road",,54.8987347122,-5.85481701131,,,
10000202,"Newtownabbey, Glenvarna Drive",,54.6801473218,-5.96418106577,,,
10000203,"Newtownabbey, Ballyhenry Avenue",,54.6802378641,-5.96850365899,,,
10000204,"Newtownabbey, Ballyhenry Road",,54.6826542082,-5.9679021368,,,
10000205,"Belmont, Glendhu Park",,54.614494954,-5.85420657788,,,
10000206,"Twinbrook, Cherry Mews",,54.5544258325,-6.0136646503,,,
10000208,"Bloomfield, Kirkliston Drive",,54.593619457,-5.87619826036,,,
10000209,"Ballygomartin, Woodvale Park",,54.6088063887,-5.96505027257,,,
10000210,"Braniel, Roddens Park",,54.5802647586,-5.8695595428,,,
10000211,"Dundonald, Dundonald Park and Ride",,54.5960050247,-5.7974933849,,,
10000212,"Pond Park House, Lady Wallace Road",,54.5308091505,-6.07427275828,,,
10000213,"Pond Park House, Fountain Crescent",,54.5303712611,-6.07781646963,,,
10000214,"Pond Park House, Sir Richard Wallace Road",,54.53145873,-6.07725542524,,,
10000215,"Pond Park House, Lady Wallace Link",,54.5305477311,-6.07535127128,,,
10000216,"Pond Park House, Lady Wallace Walk",,54.5308103845,-6.07322194114,,,
10000217,"Pond Park House, Linen Green",,54.5292862078,-6.06725209879,,,
10000218,"Pond Park House, Burandell Manor",,54.5315552632,-6.05910949132,,,
10000219,"Pond Park House, Highfields Park",,54.5300865687,-6.05887014557,,,
10000220,"Pond Park House, Highfields Avenue",,54.5292538496,-6.05962044798,,,
10000221,"Pond Park House, Kenilworth Mews",,54.5289512378,-6.06204526504,,,
10000222,"Pond Park House, Belmont Road",,54.5280039083,-6.06518041022,,,
10000223,"Hillhall, Holborn Hall",,54.5026205033,-6.02104308626,,,
10000224,"Hillhall, Holburn Hall lower",,54.502779044,-6.02304287092,,,
10000225,"Hillhall, Ballintine Gardens",,54.5069799926,-6.02494030409,,,
10000234,"Maghera (Maghera), Park and Ride Glenshane Rd",,54.8360192775,-6.68217346478,,,
10000554,"Antrim, Antrim Buscentre",,54.7181028773,-6.21228495555,,,
10000555,"Armagh, Armagh Buscentre",,54.3505228327,-6.65439223177,,,
10000556,"Ballyclare, Ballyclare Buscentre",,54.7493437973,-5.99754539223,,,
10000557,"Ballymena, Ballymena Buscentre",,54.8635483059,-6.28479293438,,,
10000558,"Banbridge, War Memorial",,54.346454194,-6.27148134774,,,
10000559,"Bangor, Bangor Buscentre",,54.6587794022,-5.67063968052,,,
10000560,"Coleraine, Coleraine Buscentre",,55.1334983376,-6.66269911227,,,
10000561,"Cookstown, Cookstown Bus Station",,54.6461000778,-6.74139370151,,,
10000562,"Craigavon, Craigavon Bus Station",,54.4503123463,-6.39791159784,,,
10000563,"Downpatrick, Downpatrick Bus Station",,54.3258198583,-5.71931749137,,,
10000564,"Dungannon, Dungannon Bus Station",,54.5013422863,-6.7740700922,,,
10000565,"Enniskillen, Enniskillen Bus Station",,54.3439447765,-7.63966145522,,,
10000566,"Belfast City Centre, Europa Buscentre",,54.5945739001,-5.93602912319,,,
10000567,"Belfast City Centre, Laganside Buscentre",,54.6001234201,-5.9231638839,,,
10000568,"Larne, Larne Bus Station",,54.8486981826,-5.82060895518,,,
10000569,"Limavady, Limavady Buscentre",,55.0539262423,-6.94847118191,,,
10000570,"Lisburn, Lisburn Buscentre",,54.5095485844,-6.04751965962,,,
10000571,"Derry~Londonderry Centre, Buscentre",,54.9965936116,-7.31800758597,,,
10000572,"Magherafelt, Magherafelt Buscentre",,54.7561552488,-6.60812699964,,,
10000573,"Newcastle, Newcastle Bus Station",,54.2148675211,-5.88850912886,,,
10000574,"Newry, Newry Buscentre",,54.1755689404,-6.33914139937,,,
10000575,"Newtownards, Newtownards Bus Station",,54.5943451616,-5.69959524271,,,
10000576,"Omagh, Omagh Buscentre",,54.601683278,-7.30162578724,,,
10000577,"Strabane, Strabane Buscentre",,54.826418936,-7.47052692259,,,
10001001,"Acton, Village",,54.3092384497,-6.37745508363,,,
10001002,"Acton, Monclone Lane",,54.3205674164,-6.37255115847,,,
10001003,"Acton, Munclone Lane",,54.3213866907,-6.37399461157,,,
10001004,"Acton, RyansCorner",,54.3087838566,-6.37106443186,,,
10001006,"Aghafatten, Buckna Road End",,54.8974370485,-6.16564837573,,,
10001009,"Aghafatten, Jamisons House",,54.9084165973,-6.14189467169,,,
10001010,"Aghafatten, Loughloghan Road",,54.9035060829,-6.15578174458,,,
10001012,"Aghafatten, Rosehill Road End",,54.9002116286,-6.14068206728,,,
10001014,"Aghagallon, Chapel",,54.5099028522,-6.29235460995,,,
10001015,"Aghagallon, 2-6 Colaine Manor",,54.5063564167,-6.29895749833,,,
10001016,"Aghagallon, Ballykeel Road",,54.5118259445,-6.28663711351,,,
10001017,"Aghagallon, Colelane",,54.5067273293,-6.29849425089,,,
10001018,"Aghagallon, Cranagh Lane",,54.5088712675,-6.30782562291,,,
10001019,"Aghagallon, Derrymore School",,54.5363214776,-6.32891244388,,,
10001020,"Aghagallon, Gawleys Gate",,54.5413925827,-6.31938543626,,,
10001021,"Aghagallon, Grants Lane",,54.5368242603,-6.3094817602,,,
10001022,"Aghagallon, Rock Lane",,54.5151266194,-6.28175706659,,,
10001023,"Aghagallon, Whitehall Corner",,54.5046992261,-6.30253165013,,,
10001024,"Aghagallon, Yarrs House",,54.5256264494,-6.3333816948,,,
10001025,"Aghalee, 2-8 Balinderry Road",,54.5250504908,-6.25995803777,,,
10001026,"Aghalee, Ballycairn",,54.5207261937,-6.26922535547,,,
10001027,"Aghalee, Brackin Island Road",,54.5601515944,-6.30424900485,,,
10001029,"Aghalee, Brankinstown Road",,54.5205235147,-6.27264791421,,,
10001030,"Aghalee, Church Lane",,54.5251255423,-6.2595531543,,,
10001031,"Aghalee, Cornation Gardens",,54.5184263104,-6.26300475933,,,
10001032,"Aghalee, Derryash Road",,54.5257928898,-6.28804524495,,,
10001033,"Aghalee, Derryola Bridge",,54.55289992,-6.30107139238,,,
10001034,"Aghalee, Holybrook",,54.52020533,-6.26360894347,,,
10001035,"Aghalee, Village",,54.5200690337,-6.27102964099,,,
10001036,"Aghalee, Rock Lane",,54.5153406151,-6.28100667829,,,
10001037,"Aghalee, Soldierstown",,54.5208906553,-6.26439860772,,,
10001038,"Aghalee, The Beeches",,54.522428484,-6.26635714511,,,
10001039,"Aghanloo, 351-359 Seacoast Road",,55.1385944369,-6.94583856028,,,
10001040,"Aghanloo, Aghanloo Crossroads",,55.0836368024,-6.94404238968,,,
10001041,"Aghanloo, Ballarena Primary School",,55.1180665251,-6.95340220621,,,
10001042,"Aghanloo, Bellarena Primary School",,55.1178868697,-6.95340690371,,,
10001043,"Aghanloo, Mc Laughlin House",,55.0985301994,-6.93744504425,,,
10001044,"Aghanloo, Mc Laughlin School",,55.1013420733,-6.93740178702,,,
10001045,"Aghanloo, Myroe Dispensary",,55.1117052944,-6.94922688128,,,
10001046,"Aghanloo, Myroe Junction",,55.1117530458,-6.9495547767,,,
10001047,"Aghanloo, O Haras  Farm",,55.111114864,-6.94952450009,,,
10001048,"Aghanloo, O Haras Farm",,55.1003817726,-6.95204672453,,,
10001049,"Agherton, Aghermore Gardens",,55.1697529844,-6.70852964243,,,
10001050,"Agherton, Agherton Village",,55.1692481691,-6.70837329808,,,
10001051,"Aghory, 15-23 Milltown",,54.357241557,-6.49799116783,,,
10001052,"Aghory, 25-33 Milltown",,54.3568342902,-6.4977598529,,,
10001053,"Aghory, 67-75 Aghory Road",,54.3614857653,-6.50399133121,,,
10001054,"Aghory, Ahorey Xrds",,54.349308241,-6.48805081573,,,
10001055,"Aghory, Burkes",,54.3670535005,-6.47496407151,,,
10001057,"Aghory, Markethill Road",,54.3418977621,-6.49190643241,,,
10001058,"Aghory, Newells Cross",,54.3564679701,-6.4799873227,,,
10001059,"Aghory, Newells Xrds",,54.3566189248,-6.47984327716,,,
10001060,"Aghory, Woolsey Lane",,54.3599806077,-6.50146101495,,,
10001061,"Ahoghill, 11-19 Galgorm Road",,54.8512484643,-6.36105098055,,,
10001062,"Ahoghill, Diamond",,54.8510196448,-6.36607500334,,,
10001063,"Ahoghill, Ahoghill Chapel",,54.8463323977,-6.37503143837,,,
10001064,"Ahoghill, Andersons Lane",,54.8461342673,-6.40412750841,,,
10001065,"Ahoghill, Ballybeg Crossroads",,54.8471577591,-6.39044588831,,,
10001072,"Ahoghill, Glenhugh Road Ahoghill",,54.8512880277,-6.36598628516,,,
10001075,"Ahoghill, Orange Hall",,54.8514982509,-6.36091626069,,,
10001078,"Aird, Giants Causeway The Nook",,55.23202566,-6.51561952698,,,
10001080,"Aird, Runkerry",,55.2275062605,-6.51710832973,,,
10001081,"Aird, Runkerry Road",,55.2272301381,-6.51730724277,,,
10001082,"Aird, The Aird",,55.2348966423,-6.49765115259,,,
10001083,"Aldergrove, Crossroads",,54.6449936186,-6.24386712779,,,
10001085,"Aldergrove, Ballyclan Road",,54.6240718392,-6.27123619856,,,
10001086,"Aldergrove, Blackstown Road",,54.638619707,-6.23318852626,,,
10001088,"Aldergrove, Cidercourt Road",,54.6266492854,-6.24365090587,,,
10001089,"Aldergrove, Gortnagallon Road",,54.6233982941,-6.27820287882,,,
10001090,"Aldergrove, Belfast International Airport",,54.6625267546,-6.21624599029,,,
10001091,"Aldergrove, McateersCorner",,54.6619048333,-6.26248354677,,,
10001092,"Aldergrove, Millars Bridge",,54.6804133233,-6.22383639968,,,
10001093,"Aldergrove, RAF Camp",,54.655116639,-6.20190850268,,,
10001095,"Aldergrove, The Cottages",,54.6253096583,-6.25791081085,,,
10001096,"Aldergrove, The Diamond",,54.6396607332,-6.27990153887,,,
10001098,"Aldergrove, Townland Road",,54.6524267765,-6.25702979191,,,
10001099,"Aldergrove, White Horse Inn",,54.6687018262,-6.25272030876,,,
10001100,"Aldergrove, White House Inn",,54.669114792,-6.25144672665,,,
10001101,"Aldergrove, Wilsons House",,54.676134949,-6.23422684462,,,
10001102,"Aldergrove, Wilsons House",,54.6763594654,-6.23421709959,,,
10001103,"Allistragh, Allens Corner [Dark Lane]",,54.3692218062,-6.66967888278,,,
10001104,"Allistragh, Allens Corner(Dark Lane)",,54.3696165478,-6.6696199513,,,
10001105,"Allistragh, Allistragh Post Office",,54.3840135101,-6.67053992493,,,
10001106,"Allistragh, Cullens House",,54.4000052442,-6.66614155703,,,
10001107,"Allistragh, Drumsill",,54.3754506943,-6.67307931662,,,
10001108,"Allistragh, Drumsill Hotel",,54.3751996787,-6.6731335891,,,
10001109,"Allistragh, Kearneys House",,54.3625797914,-6.68845100154,,,
10001110,"Allistragh, Kinnego Crossroads",,54.4085812198,-6.66643317939,,,
10001111,"Allistragh, Kinnego Crossroads",,54.4088007199,-6.66678036953,,,
10001112,"Allistragh, McCready's Corner",,54.3902385163,-6.67032327709,,,
10001113,"Tullysaran, Todds Corner",,54.3748779884,-6.69972627453,,,
10001114,"Allistragh, Trainors Corner",,54.4129700155,-6.66838601665,,,
10001115,"Allistragh, Traynors Metals",,54.4128056062,-6.66814484221,,,
10001116,"Altamullan, Aghyaran Post Office",,54.6773134466,-7.72086202427,,,
10001117,"Altamullan, Clegernagh Crossroads",,54.6720700719,-7.75151664349,,,
10001118,"Altamuskin, Ballymacilroy Hill  Lower",,54.4755691513,-7.07597957137,,,
10001119,"Altamuskin, Ballymacilroy Hill Lower",,54.4758644458,-7.07581862115,,,
10001120,"Altamuskin, Ballymacilroy Hill Upper",,54.4809380573,-7.08483957288,,,
10001121,"Altmover, Ballymonie, Housing Estate",,54.9285634196,-7.01997306624,,,
10001122,"Altmover, Ballymonie, Housing Estate 1",,54.9282663017,-7.02436450647,,,
10001123,"Altmover, DERNAFLAW 2",,54.9251771687,-6.96482767501,,,
10001124,"Altmover, DERNAFLAW 3",,54.9251175622,-6.97902616809,,,
10001125,"Altmover, Dernaflaw Road",,54.9252619502,-6.96423265531,,,
10001126,"Altmover, Derrychrier",,54.9114660564,-6.96273104198,,,
10001127,"Altmover, Feeny Road",,54.9086958707,-6.96662297854,,,
10001128,"Altmover, FOREGLEN 2",,54.9300863277,-7.03739567363,,,
10001131,"Altmover, Ralliagh Church",,54.9005976355,-6.97585789692,,,
10001132,"Altnagelvin, 23-31 Rossdowney Park",,54.9909233903,-7.29888362534,,,
10001133,"Altnagelvin, 24-32 Rossdowney Park",,54.9907265574,-7.29902769094,,,
10001134,"Altnagelvin, 2-8 Belt Road",,54.9828119456,-7.29607224937,,,
10001135,"Altnagelvin, Altnagelvin",,54.9872336866,-7.29629174115,,,
10001137,"Altnagelvin, Altnagelvin Hospital Main Road",,54.9861333246,-7.29556102603,,,
10001138,"Altnagelvin, Altnagelvin Hospital Grounds",,54.9869583992,-7.29374975012,,,
10001139,"Altnagelvin, Ashcroft",,54.9803138014,-7.29911537952,,,
10001140,"Altnagelvin, Belt Road",,54.9829741058,-7.29614752723,,,
10001141,"Altnagelvin, Bowling Green",,54.9873449769,-7.30000847972,,,
10001142,"Altnagelvin, Church Brae",,54.9825343855,-7.2931400072,,,
10001143,"Altnagelvin, Crescent Road",,54.9873108393,-7.30032156805,,,
10001144,"Altnagelvin, Altnagelvin Hospital Stop 2",,54.9860798022,-7.29407766036,,,
10001146,"Altnagelvin, Glenaden",,54.9802316551,-7.30358469186,,,
10001147,"Altnagelvin, Glendermott Road",,54.9898491842,-7.29801168557,,,
10001148,"Altnagelvin, Harberton Park",,54.9861543669,-7.2960918827,,,
10001149,"Altnagelvin, Knockwellan Park",,54.9874199814,-7.30211651641,,,
10001150,"Altnagelvin, Lisaghmore",,54.9800072387,-7.30361981988,,,
10001151,"Altnagelvin, Lisnagelvin Shopping Centre",,54.9902562471,-7.29537943613,,,
10001154,"Altnagelvin, Woodburn",,54.9913993194,-7.29728144566,,,
10001160,"Andersonstown, Aitnamonagh Crescent",,54.5838372362,-5.99173242914,,,
10001161,"Andersonstown, Leisure Centre",,54.5736276803,-5.98791879515,,,
10001162,"Andersonstown, Ballyowen",,54.5729175732,-5.99386276232,,,
10001163,"Andersonstown, Blackstaff Road",,54.5765384482,-5.9786945079,,,
10001164,"Andersonstown, CBS",,54.5801618476,-5.99879795067,,,
10001165,"Andersonstown, Coolnasilla",,54.5807684826,-5.99581315923,,,
10001166,"Andersonstown, Finaghy Road North",,54.5694278732,-5.99261120625,,,
10001167,"Andersonstown, Fruithill",,54.575714451,-5.98209220783,,,
10001168,"Andersonstown, Fruithill Park",,54.5766174174,-5.98073263349,,,
10001169,"Andersonstown, Glen Parade",,54.5835407471,-5.98201477267,,,
10001170,"Andersonstown, Glen Road",,54.582182161,-5.99001909963,,,
10001171,"Andersonstown, Hamill Grove",,54.5789918314,-6.00358936756,,,
10001172,"Andersonstown, Hillhead Cottages",,54.5755943665,-6.00465272162,,,
10001173,"Andersonstown, Ladybrook Shops",,54.5686317687,-5.99283593897,,,
10001174,"Andersonstown, Milltown Cemetery",,54.5825371133,-5.97949600344,,,
10001175,"Andersonstown, Opp Aitnamona Crescent",,54.5839034267,-5.99138877336,,,
10001176,"Andersonstown, Orchardville",,54.566499243,-5.98997124756,,,
10001178,"Andersonstown, Owenvarragh Park",,54.5741163444,-5.98596109145,,,
10001179,"Andersonstown, Ramoan",,54.5790262696,-6.00295338055,,,
10001180,"Andersonstown, Rosgoill Park",,54.5744305428,-6.00274502399,,,
10001181,"Andersonstown, Rosnareen",,54.5783694,-6.00617244529,,,
10001183,"Andersonstown, Slievegallion Drive",,54.5732026187,-5.99046112828,,,
10001184,"Andersonstown, St Michaels",,54.5717512433,-5.9945233154,,,
10001185,"Andersonstown, St Teresa's",,54.5808457581,-5.99071923398,,,
10001186,"Andersonstown, Stewartstown Road",,54.5740522573,-6.00106194572,,,
10001188,"Andersonstown, St Teresa's",,54.5808655167,-5.99299257723,,,
10001189,"Andersonstown, Trench Park",,54.5696803268,-5.99266066647,,,
10001190,"Andersonstown, Westwood Centre",,54.5777759239,-5.9796078772,,,
10001191,"Annacloy, Crossroads",,54.3650874089,-5.77761282506,,,
10001192,"Annacloy, Annacloy Road",,54.3651786111,-5.77768485388,,,
10001193,"Annacloy, Crossroads",,54.3655413154,-5.77883498821,,,
10001194,"Annacloy, Bells Hill",,54.3662793255,-5.73920832942,,,
10001196,"Annacloy, Cargagh Road",,54.3628388966,-5.76973140402,,,
10001197,"Annacloy, CargosCorner",,54.3575323495,-5.73958112213,,,
10001198,"Annacloy, Castleviggan Lane",,54.3704812944,-5.80419747754,,,
10001199,"Annacloy, Down Business Park",,54.3476635249,-5.73476914972,,,
10001200,"Annacloy, Inch Abbey Road",,54.3422770062,-5.73078911063,,,
10001201,"Annacloy, KennedysCorner",,54.3566638553,-5.74359890241,,,
10001202,"Annacloy, Mccreanors Shop",,54.3688977803,-5.79523132507,,,
10001203,"Annacloy, Mcgraths Shop",,54.3617108804,-5.76608361912,,,
10001204,"Annacloy, Orchard Grove",,54.3635639813,-5.77249315589,,,
10001205,"Annacloy, PF Tyres",,54.3639505494,-5.77347261393,,,
10001206,"Annacloy, RogansCorner",,54.3660314799,-5.78056313412,,,
10001207,"Annacloy, Skillens Pike",,54.3529248429,-5.73831087566,,,
10001208,"Annacloy, The Cottages",,54.3672890563,-5.78492811903,,,
10001209,"Annacloy, Tyconnaugh Chapel",,54.3686240366,-5.79107470464,,,
10001210,"Annadale, Annadale Drive",,54.5728856157,-5.92850946729,,,
10001212,"Annadale, Lyric",,54.5771486832,-5.93027337303,,,
10001213,"Annadale, Sunnyside Street",,54.5772169879,-5.92743883601,,,
10001214,"Annadale, The Allotments",,54.5687805872,-5.92129345115,,,
10001215,"Annadale, The Terrace",,54.5749944542,-5.92990302027,,,
10001216,"Annadale, Wellington Square",,54.5708910528,-5.92591922135,,,
10001218,"Annaghmore (Portadown), 1-5 Meadowview Drive",,54.4577920447,-6.60307846244,,,
10001220,"Annaghmore (Portadown), 2-6 Meadowview Drive",,54.4577934705,-6.6032018016,,,
10001222,"Annaghmore (Portadown), Annaghmore PS",,54.4580243329,-6.58596581253,,,
10001223,"Annaghmore (Portadown), Annaghmore Road",,54.4571828484,-6.58087429349,,,
10001224,"Annaghmore (Portadown), Station",,54.460138928,-6.58467438196,,,
10001225,"Annaghmore (Portadown), Ardress Cottages",,54.4447680845,-6.60048438056,,,
10001226,"Annaghmore (Portadown), Ardress Corner",,54.4429770298,-6.59946620548,,,
10001227,"Annaghmore (Portadown), Blackisland Road",,54.4477486911,-6.60257231811,,,
10001228,"Annaghmore (Portadown), Cranagill Church",,54.4455605423,-6.57754487531,,,
10001229,"Annaghmore (Portadown), Derrys",,54.4561595992,-6.57944451883,,,
10001230,"Annaghmore (Portadown), Drumannon PO",,54.4439463772,-6.56037854857,,,
10001231,"Annaghmore (Portadown), Drummanon PO",,54.444044633,-6.56032884656,,,
10001232,"Annaghmore (Portadown), Haddens Corner",,54.4421409785,-6.57180469428,,,
10001233,"Annaghmore (Portadown), Haddens Corner",,54.4419629685,-6.5719496471,,,
10001234,"Annaghmore (Portadown), Kesquin Bridge",,54.43992113,-6.62365141182,,,
10001237,"Annaghmore (Portadown), Summerisland Road",,54.4380173835,-6.63405936677,,,
10001238,"Annaghmore (Portadown), Teaguy O Hall",,54.4512953512,-6.56931166466,,,
10001239,"Annaghmore (Portadown), Teaguy OHall",,54.4512088118,-6.56959226155,,,
10001240,"Annaghmore (Portadown), Tullyroan Corner",,54.4522027101,-6.62976263616,,,
10001242,"Annaghmore (Portadown), Tullyroan Corner",,54.452419868,-6.62989417574,,,
10001243,"Annaghmore (Portadown), Valleys Bar",,54.4421273923,-6.60447507721,,,
10001244,"Annahilt, 276-284 Ballynahinch Road",,54.4352616988,-5.99426085957,,,
10001245,"Annahilt, 2-8 Glenside",,54.4266442674,-6.00954030307,,,
10001246,"Annahilt, West Winds Terrace",,54.4370165104,-5.99927819863,,,
10001247,"Annahilt, Aughnaleck Xrds",,54.4537333723,-5.99175360593,,,
10001248,"Annahilt, Ballycrune Crossroads",,54.4381394799,-6.0019677902,,,
10001249,"Annahilt, Ballymurphy Road",,54.4312195849,-5.97392548298,,,
10001250,"Annahilt, Blenheim Park",,54.4358209654,-6.00360692086,,,
10001251,"Annahilt, Carricknadarrif Road",,54.4444199289,-5.99591029969,,,
10001252,"Annahilt, Dicksons Cottage",,54.4209707709,-6.02470246524,,,
10001253,"Annahilt, Glebe Manor",,54.4397513708,-6.00053250445,,,
10001254,"Annahilt, Kernaghan Park",,54.4357501599,-5.9949924093,,,
10001255,"Annahilt, Lakeland Road",,54.4269643468,-6.00715112021,,,
10001256,"Annahilt, Raffertys Hill",,54.4208455551,-6.0247393104,,,
10001257,"Annahilt, The New Road",,54.4460037797,-5.99441423639,,,
10001258,"Annahilt, The Shop",,54.4363706506,-5.99718214142,,,
10001260,"Annaloist, Annesborough",,54.4760218454,-6.35044454211,,,
10001261,"Annaloist, Annesborough Park",,54.4801148062,-6.34943101021,,,
10001262,"Annaloist, Derrymacash",,54.4682404292,-6.383758002,,,
10001263,"Annaloist, Grange",,54.478094887,-6.35023765116,,,
10001264,"Annaloist, Kinego",,54.4885098587,-6.35747433033,,,
10001265,"Annaloist, Lough Road",,54.4848246061,-6.3600606715,,,
10001266,"Annaloist, McAlindens Corner",,54.4881749935,-6.35135987064,,,
10001267,"Lurgan, Loughview Park and Ride Lough Road",,54.4822689733,-6.35451438314,,,
10001268,"Lurgan, Turmoyra Court",,54.4799763275,-6.35377309139,,,
10001269,"Annalong, 125-133 Glassdrumman Road",,54.1117873637,-5.89973380449,,,
10001270,"Annalong, 130-138 Glassdrumman Road",,54.1118441768,-5.89989919327,,,
10001271,"Annalong, 157-165 Kilkeel Road",,54.1006569743,-5.91087876266,,,
10001272,"Annalong, 169-177 Annalong Road",,54.1003915599,-5.9111214908,,,
10001273,"Annalong, Main Street",,54.1079682196,-5.90079872299,,,
10001274,"Annalong, Barbican",,54.1062447003,-5.90298115315,,,
10001275,"Annalong, Church Gates",,54.1033858895,-5.90655116517,,,
10001276,"Annalong, Main Street",,54.1081855999,-5.90089480398,,,
10001277,"Annalong, Mccrackens Road",,54.1184786685,-5.89844684316,,,
10001278,"Annalong, Moneydarragh Rd",,54.1030661328,-5.90728605959,,,
10001279,"Annalong, Mullartown Heights",,54.1106839239,-5.89985078419,,,
10001280,"Annalong, Mullartown House",,54.1161267062,-5.89963673422,,,
10001281,"Annalong, Stewarts Road",,54.0955802936,-5.91873333246,,,
10001282,"Antrim, 12-20 Parkhall Road",,54.7234397953,-6.20492396678,,,
10001283,"Antrim, 13-21 Beechfield",,54.7252664796,-6.20569714225,,,
10001284,"Antrim, Donegore Drive",,54.714911989,-6.20675987937,,,
10001285,"Antrim, 16-24 Belfast Road",,54.7117974911,-6.20397945084,,,
10001286,"Antrim, 16-24 Massereene Gardens",,54.7239656389,-6.22169917485,,,
10001287,"Antrim, 20-28 Woodland Grove",,54.7069353518,-6.22222727554,,,
10001288,"Antrim, 22-30 Parkhall Road",,54.7227771279,-6.20326103896,,,
10001289,"Antrim, 23-31 Ardglinis Gardens",,54.7193753137,-6.19204820822,,,
10001291,"Antrim, 24-32 Woodland Grove",,54.7066006876,-6.22269195927,,,
10001292,"Antrim, 2-6 Aghaboy Gardens",,54.7179129328,-6.18980035538,,,
10001293,"Antrim, 2-6 Ballymena Road",,54.7203705708,-6.22104933879,,,
10001294,"Antrim, 26-34 Belfast Road",,54.7104617463,-6.20177254238,,,
10001295,"Antrim, Chapel Corner",,54.7204192164,-6.22069015624,,,
10001296,"Antrim, 33-41 Belfast Road",,54.709711308,-6.20085903779,,,
10001298,"Antrim, 47-55 Meadowside",,54.7070648099,-6.2175814628,,,
10001299,"Antrim, 6-14 Parkhall Road",,54.7234222728,-6.20556127396,,,
10001300,"Antrim, 65-73 Birch Hill Meadows",,54.7254148533,-6.2023680324,,,
10001301,"Antrim, 7-15 Briar Hill",,54.7075288327,-6.22041661804,,,
10001303,"Antrim, 9-17 Belfast Road",,54.7121447047,-6.20497295855,,,
10001305,"Antrim, Admiraltry Estate",,54.7213409043,-6.22716999878,,,
10001307,"Antrim, Asda",,54.7280295147,-6.22920700692,,,
10001308,"Antrim, Ashgreen",,54.712914659,-6.19509850826,,,
10001311,"Antrim, Barney's Stop",,54.7185782663,-6.213443804,,,
10001312,"Antrim, Belmont Heights",,54.7080858159,-6.19790473968,,,
10001313,"Antrim, Belmont Road",,54.7089605754,-6.21939169599,,,
10001314,"Antrim, Birchill Road",,54.7226925268,-6.19575071887,,,
10001316,"Antrim, Bush Road",,54.7347429431,-6.19030781341,,,
10001317,"Antrim, Bush Road 2",,54.7295175119,-6.19906535619,,,
10001319,"Antrim, Bush Town Road",,54.730815276,-6.1981071632,,,
10001320,"Antrim, Carnbrock Drive",,54.7193476325,-6.19501445975,,,
10001321,"Antrim, Castle Way",,54.7188363664,-6.22060426219,,,
10001322,"Antrim, Cedarmount",,54.705347699,-6.22058972528,,,
10001323,"Antrim, Cemetery",,54.7068946001,-6.2048324322,,,
10001324,"Antrim, Chapel Corner Castle Road",,54.7200068191,-6.22198117725,,,
10001325,"Antrim, Chapel Corner",,54.7198205036,-6.22214457109,,,
10001326,"Antrim, Council Offices",,54.7232504152,-6.2073076809,,,
10001327,"Antrim, Devon Square",,54.718316973,-6.18497013032,,,
10001329,"Antrim, Donegore Drive Tel/Box",,54.7164171216,-6.20402356345,,,
10001330,"Antrim, Dublin Road",,54.7074268846,-6.22142981968,,,
10001331,"Antrim, Parkhall Road",,54.7210427596,-6.19902201537,,,
10001332,"Antrim, Enkalon",,54.7215124889,-6.22907200912,,,
10001334,"Antrim, Footbridge Stiles Way",,54.7255613071,-6.20194234669,,,
10001335,"Antrim, Footway Rathenraw",,54.7188063361,-6.18945006954,,,
10001336,"Antrim, Greenmount Gates",,54.7020553876,-6.22281314586,,,
10001337,"Antrim, Greenmount Corner",,54.6941930219,-6.22653890405,,,
10001338,"Antrim, Greenvale Village",,54.7068776059,-6.20854219016,,,
10001339,"Antrim, Greystone Road",,54.7142717406,-6.20296980596,,,
10001340,"Antrim, Greystone Roundabout",,54.7158677355,-6.18584016324,,,
10001341,"Antrim, Greystone Road Shops",,54.714058149,-6.18862174358,,,
10001342,"Antrim, Holywell Hospital",,54.7340500881,-6.2090048812,,,
10001343,"Antrim, KFC",,54.7208902604,-6.19662252068,,,
10001344,"Antrim, KFC Fountain Hill",,54.7216284516,-6.19550302528,,,
10001345,"Antrim, Kilgreel Road",,54.7176472386,-6.19911047852,,,
10001346,"Antrim, Springfarm Estate",,54.7309020495,-6.21673696167,,,
10001347,"Antrim, Knockmoyle",,54.712963373,-6.19958197383,,,
10001348,"Antrim, High Street",,54.7145062127,-6.21885371792,,,
10001349,"Antrim, Market Square",,54.7154939148,-6.22124738291,,,
10001351,"Antrim, Meadowlands",,54.7303474854,-6.22671463244,,,
10001352,"Antrim, Stiles Way",,54.7279482344,-6.20899455581,,,
10001353,"Antrim, Moylena",,54.712466821,-6.20973919206,,,
10001354,"Antrim, Moylena Grove",,54.7089179223,-6.21466008439,,,
10001355,"Antrim, Moylena Road",,54.7126397413,-6.20988678264,,,
10001356,"Antrim, Muckamore Abbey",,54.6928843502,-6.18849480214,,,
10001358,"Antrim, Norfolk Court",,54.7192118907,-6.18772439264,,,
10001359,"Antrim, Oaktree Drive",,54.7224439479,-6.20200274427,,,
10001360,"Antrim, Old Springfarm Road",,54.7242938207,-6.22140534508,,,
10001362,"Antrim, Oriel Road",,54.7194795384,-6.21728507338,,,
10001363,"Antrim, Parkhall",,54.7146991219,-6.20270255051,,,
10001365,"Antrim, High Street",,54.7143827648,-6.21901434735,,,
10001366,"Antrim, Railway Bridge",,54.7295828048,-6.22297485092,,,
10001368,"Antrim, Rathglyn Fountain Hill",,54.7193085917,-6.19782597328,,,
10001369,"Antrim, Rathglyn Fountain Hill",,54.7188673981,-6.19776793171,,,
10001370,"Antrim, Somerset Park",,54.7196351827,-6.17999017724,,,
10001371,"Antrim, Springfarm Primary School",,54.7347523952,-6.21641252564,,,
10001374,"Antrim, St Comgalls School",,54.7199644961,-6.22032198131,,,
10001376,"Antrim, Steeple View",,54.7229342635,-6.20719743684,,,
10001377,"Antrim, Subway Station Road",,54.7215945016,-6.20835881716,,,
10001378,"Antrim, Sussex Square",,54.720982508,-6.18654315895,,,
10001379,"Antrim, Cunningham Way",,54.7110844167,-6.21105726322,,,
10001380,"Antrim, Technical College",,54.7135429586,-6.21141464431,,,
10001381,"Antrim, Technology Park",,54.706970189,-6.1990250215,,,
10001383,"Antrim, The Folly",,54.7166934774,-6.19963396498,,,
10001384,"Antrim, Stiles Way The Meadow",,54.7293409649,-6.21568755262,,,
10001385,"Antrim, The Warren",,54.708319089,-6.19848413237,,,
10001387,"Antrim, Woodland Grove Shop",,54.7082017154,-6.22156661726,,,
10001388,"Ardboe, Biggers House",,54.6118508785,-6.52970250391,,,
10001389,"Ardboe, Campbells Corner",,54.621989469,-6.51663859548,,,
10001390,"Ardboe, Hagans Lane",,54.6158089804,-6.51020557909,,,
10001391,"Ardboe, Killycanavan",,54.6131283327,-6.53947223732,,,
10001392,"Ardboe, Old Cross Ardboe",,54.6196375007,-6.50586929217,,,
10001393,"Ardboe, Old Cross Pub",,54.6208619196,-6.51189466257,,,
10001394,"Shinn, Ardarragh",,54.2290362803,-6.23454763376,,,
10001401,"Shinn, Mcminns",,54.221031169,-6.2718947027,,,
10001402,"Shinn, Mcminns Road",,54.2211574067,-6.27317764306,,,
10001403,"Shinn, Mount Kearney",,54.2190484925,-6.28281940954,,,
10001404,"Shinn, Orchard Bar",,54.2056434653,-6.29571621721,,,
10001406,"Shinn, Crossroads",,54.2235312296,-6.26326303095,,,
10001407,"Shinn, Crossroads",,54.2223921219,-6.26528923915,,,
10001409,"Ardess, Ardess Xrds",,54.5169655074,-7.68424147466,,,
10001410,"Ardess, Manoo Xrds",,54.5063366824,-7.68796735248,,,
10001411,"Ardglass, 1-5 Ardglass Road",,54.2629922163,-5.61015703896,,,
10001412,"Ardglass, 22-30 High Street",,54.2602580852,-5.61188119032,,,
10001413,"Ardglass, 25-33 High Street",,54.260354517,-5.6131191621,,,
10001414,"Ardglass, 2-6 Seaview",,54.2661946648,-5.60667045657,,,
10001415,"Ardglass, Bath Street",,54.2627918215,-5.60956985453,,,
10001416,"Ardglass, 2-8 Kimmers Port",,54.2643956402,-5.60886285973,,,
10001417,"Ardglass, Kildare Street",,54.2593010077,-5.60713133345,,,
10001418,"Ardglass, Ardglass Primary School",,54.264547695,-5.61381339815,,,
10001419,"Ardglass, Ardglass Wine Store",,54.2631939839,-5.61036031202,,,
10001420,"Ardglass, Ardglass, Hill Street",,54.2602511262,-5.60971690342,,,
10001421,"Ardglass, Burford Lodge",,54.2614227989,-5.60806774944,,,
10001422,"Ardglass, Phennick Way",,54.265629366,-5.61760484589,,,
10001424,"Ardglass, The Habour",,54.261268047,-5.60796924235,,,
10001425,"Ardkeen, Abbacy Road",,54.4221994627,-5.53525458101,,,
10001426,"Ardkeen, Ardkeen Village",,54.4225582278,-5.5352176285,,,
10001427,"Ardkeen, Ballyfindra",,54.4105620131,-5.50907988686,,,
10001428,"Ardkeen, Ballyridley Lake",,54.4130883057,-5.53538536339,,,
10001429,"Ardkeen, Broomhill",,54.420845137,-5.50128907094,,,
10001430,"Ardkeen, Loughdoo Road",,54.4343103752,-5.53369465701,,,
10001431,"Ardkeen, McCormicks Corner",,54.434240931,-5.53337505793,,,
10001432,"Ardkeen, Nunsbridge",,54.4193406566,-5.50068707948,,,
10001439,"Ardmore (Limavady), Ardmore Mill Road",,55.0300736175,-6.89398944367,,,
10001441,"Ardmore (Limavady), Glenkeen",,55.0511011508,-6.8883705859,,,
10001442,"Ardmore (Limavady), Glenkeen House",,55.0511152754,-6.88893360026,,,
10001443,"Ardmore (Londonderry), Lisdillon",,54.9440615674,-7.2717923267,,,
10001444,"Ardmore (Limavady), Mc Crackens  Lane",,55.0500020233,-6.8763037894,,,
10001445,"Ardmore (Limavady), Mc Crackens Lane",,55.0499243562,-6.87665025803,,,
10001446,"Ardoyne, Abbeydale Park",,54.6183757686,-5.97191290026,,,
10001447,"Ardoyne, Ardoyne Road",,54.6175374248,-5.9658687947,,,
10001448,"Ardoyne, Ardoyne Shops",,54.6145147633,-5.96622090028,,,
10001449,"Ardoyne, Berwick Road",,54.6180470476,-5.96304044734,,,
10001450,"Oldpark, Carr's Glen Primary School",,54.6248103026,-5.96281085103,,,
10001451,"Ardoyne, Cranbrook Court",,54.6156719189,-5.96662772059,,,
10001452,"Oldpark, Deerpark Road",,54.6238165687,-5.96143563202,,,
10001453,"Ardoyne, Estoril Park ",,54.6154068389,-5.96636221633,,,
10001454,"Ardoyne, Etna Drive",,54.6184851754,-5.96077309784,,,
10001455,"Ardoyne, Everton Complex",,54.6157843177,-5.96796929807,,,
10001456,"Ardoyne, Joanmount Park",,54.625366767,-5.96383625469,,,
10001457,"Ardoyne, Mercy Primary School",,54.6178686787,-5.9711483599,,,
10001458,"Ardoyne, Mountainview Place",,54.6152584652,-5.96715933546,,,
10001459,"Ardoyne, Somerdale Park",,54.6165552041,-5.96892192427,,,
10001463,"Ardshankill, Letter",,54.5343709065,-7.87024384664,,,
10001466,"Ardstraw, 3-7 Deerpark Road",,54.7325609319,-7.45793292864,,,
10001467,"Ardstraw, Village",,54.7325873994,-7.45782389062,,,
10001468,"Ardstraw, Ardstraw Road",,54.7340745477,-7.45885986746,,,
10001469,"Ardstraw, Killeen Road",,54.7285061216,-7.48411531517,,,
10001470,"Ardstraw, Marshalls House",,54.7453958574,-7.45490377564,,,
10001471,"Armagh, 16-24 Irish Street",,54.3422539151,-6.6590918086,,,
10001472,"Armagh, 1-9 Killuney Drive",,54.3473445938,-6.63942173639,,,
10001473,"Armagh, 2-10 Primates Cottages",,54.3381848698,-6.66005468513,,,
10001475,"Armagh, Folly Estate",,54.3456076031,-6.63918686958,,,
10001476,"Armagh, Longstone Estate",,54.3653155967,-6.64809173153,,,
10001477,"Armagh, 3-11 Aghamore Walk",,54.3648753405,-6.65050680162,,,
10001478,"Armagh, 3-11 Irish Street",,54.3413862215,-6.66025815192,,,
10001479,"Armagh, 3-11 Primates Cottages",,54.3377609628,-6.65991468797,,,
10001480,"Armagh, 67-75 Killuney Drive",,54.3443716565,-6.6411503119,,,
10001481,"Armagh, Drumcairn Road",,54.3590649956,-6.6645757446,,,
10001482,"Armagh, ACFE Lisanally Road",,54.3560986987,-6.6507637147,,,
10001483,"Armagh, Southern Regional College",,54.3518031047,-6.65396580614,,,
10001484,"Armagh, Southern Regional College",,54.3529675619,-6.65443541588,,,
10001485,"Armagh, Alexander Estate",,54.3578333871,-6.65159924686,,,
10001486,"Armagh, Annaclare",,54.3603420838,-6.6074183122,,,
10001487,"Armagh, Annaclare [Brittons House]",,54.360389127,-6.60760136395,,,
10001489,"Armagh, Ardmore  Avenue",,54.3362113555,-6.62916330968,,,
10001490,"Armagh, Ardmore Crescent",,54.3368748295,-6.62744964369,,,
10001491,"Armagh, Ardmore",,54.3385592,-6.6293773857,,,
10001493,"Armagh, Ballyhr\Erdon",,54.3235646089,-6.65121387997,,,
10001494,"Armagh, Barrack Hill",,54.3472384381,-6.64596256939,,,
10001495,"Armagh, Barrick Hill",,54.3474167159,-6.64583365224,,,
10001496,"Armagh, Cathedral Road",,54.3513043811,-6.65759721534,,,
10001497,"Armagh, Cavanacaw Park",,54.3353943682,-6.63875531989,,,
10001498,"Armagh, City Hotel",,54.3448112403,-6.65230243716,,,
10001499,"Armagh, City Of Armagh High School",,54.3574880956,-6.65367224674,,,
10001500,"Armagh, College Street",,54.3497111106,-6.65412648039,,,
10001501,"Armagh, Convent Road",,54.351696885,-6.66381476728,,,
10001502,"Armagh, Cregagh Gardens",,54.3390396158,-6.66257977369,,,
10001503,"Armagh, Deans Bridge",,54.3538925117,-6.63755924667,,,
10001504,"Armagh, Dean's Bridge",,54.3538289371,-6.63749981258,,,
10001505,"Armagh, Dillon Heights",,54.3561881868,-6.63157532416,,,
10001506,"Armagh, Dr Bells Gate",,54.3624000491,-6.61367302448,,,
10001508,"Armagh, Drumbreda",,54.3598920272,-6.6605483921,,,
10001509,"Armagh, Dublin Road Finger Post",,54.333919711,-6.65711799496,,,
10001510,"Armagh, Edenaveys",,54.3355795786,-6.63605812092,,,
10001511,"Armagh, Elim Church",,54.3587140287,-6.62689087565,,,
10001512,"Armagh, Emania Terrace",,54.3457507506,-6.66243877421,,,
10001513,"Armagh, Geary,s Bridge",,54.3616580865,-6.66259898593,,,
10001514,"Armagh, Golf Club",,54.3446508281,-6.64680130079,,,
10001515,"Armagh, Grants Bungalow",,54.3474701907,-6.62434317576,,,
10001516,"Armagh, Hamiltonsbawn Road",,54.3470811395,-6.63598489502,,,
10001517,"Armagh, Harps Gaa Club",,54.358165455,-6.65881979161,,,
10001518,"Armagh, Hospital Road",,54.3454261578,-6.66558708465,,,
10001519,"Armagh, Irish Street",,54.3437870198,-6.6579652582,,,
10001520,"Armagh, Irish Street Bridge",,54.3432116746,-6.65875302328,,,
10001521,"Armagh, Jubilee Park",,54.3396334903,-6.63060273334,,,
10001523,"Armagh, Longstone Exit",,54.3650070738,-6.65184128783,,,
10001524,"Armagh, Mall West (Mallview Terrace)",,54.34748223,-6.65007693686,,,
10001525,"Armagh, Mall West Sainsburys",,54.3474962392,-6.6497226911,,,
10001526,"Armagh, Mckinneys Saw Mill",,54.356390004,-6.65835452608,,,
10001527,"Armagh, Mill Row",,54.3724260554,-6.64110132252,,,
10001530,"Armagh, Mullabane",,54.3658648737,-6.59468942292,,,
10001531,"Armagh, Mullinure Lane",,54.3642007934,-6.65286793392,,,
10001533,"Armagh, Nugent & Gibney",,54.3650555961,-6.65216285875,,,
10001534,"Armagh, Orangefield",,54.3454910522,-6.63443789758,,,
10001535,"Armagh, Reid's Corner",,54.3582856528,-6.62715134097,,,
10001536,"Armagh, Reillys Rocks",,54.3719739907,-6.6416549435,,,
10001537,"Armagh, Richhill Finger Post",,54.349226597,-6.61683926362,,,
10001538,"Armagh, Ring Road",,54.3451079613,-6.66119839687,,,
10001539,"Armagh, Royal School",,54.3517083987,-6.64870771188,,,
10001541,"Armagh, Sandown Nursing Home",,54.3472364551,-6.63621048056,,,
10001542,"Armagh, Selb",,54.3447360012,-6.64638321559,,,
10001543,"Armagh, Railway Street",,54.3510816045,-6.65695837676,,,
10001544,"Armagh, Simpson's Nursery",,54.3470151307,-6.63571020738,,,
10001546,"Armagh, St Catherine's College",,54.3470617662,-6.66641085705,,,
10001547,"Armagh, St Lukes",,54.3628509382,-6.65511256047,,,
10001548,"Armagh, St Luke's Hospital",,54.3626059996,-6.65490513596,,,
10001549,"Armagh, St Malachy`s",,54.3443415689,-6.65773185879,,,
10001550,"Armagh, St Malachys Terrace",,54.3557106901,-6.66029979633,,,
10001551,"Armagh, St Patrick's Gillis PS",,54.3580901728,-6.65851452474,,,
10001552,"Armagh, St Patrick's Grammar School",,54.3547870147,-6.65885291603,,,
10001553,"Armagh, Swiss Terrace",,54.3398068035,-6.64196218753,,,
10001554,"Armagh, The Health Centre",,54.3447061343,-6.6533517826,,,
10001555,"Armagh, Tower Hill",,54.3523181014,-6.64538018013,,,
10001556,"Armagh, Ulsterbus Garage",,54.3560667081,-6.65756502995,,,
10001557,"Armagh, Whittles Service Station",,54.337497439,-6.63957777901,,,
10001558,"Armagh, Whittles Shop",,54.3376104031,-6.63923572518,,,
10001559,"Armagh, Woodford",,54.3319094624,-6.63493412205,,,
10001560,"Armagh, Woodford Crescent",,54.3309007989,-6.63791969773,,,
10001561,"Armagh, Woodford Drive",,54.3334932879,-6.63911028127,,,
10001562,"Armagh, Woodford Park",,54.3336930478,-6.63690478792,,,
10001563,"Armoy, Diamond",,55.1314496767,-6.3260030511,,,
10001565,"Armoy, Diamond",,55.1313031906,-6.325805305,,,
10001566,"Armoy, Armoy Primary School",,55.128418502,-6.3277451065,,,
10001567,"Armoy, Armoy Primary",,55.1284666304,-6.32797832003,,,
10001568,"Armoy, Armoy Rugby Club",,55.123336421,-6.32344176296,,,
10001569,"Armoy, Ballykenver Road",,55.1437915744,-6.31786211097,,,
10001570,"Armoy, Ballykenver Road End",,55.1438132139,-6.3181278921,,,
10001572,"Armoy, Capecastle",,55.1472061593,-6.31072110304,,,
10001575,"Armoy, Hillside Cottage ",,55.1377972482,-6.3249687698,,,
10001576,"Armoy, Hillside Road",,55.1376600254,-6.32544507662,,,
10001578,"Arney, Crossroads",,54.2913186357,-7.67853588335,,,
10001579,"Arney, Five Points",,54.2914845868,-7.69753473059,,,
10001580,"Arney, Harrons",,54.2907717874,-7.68930721515,,,
10001581,"Arney, Skea Turn",,54.3046953264,-7.68774272039,,,
10001582,"Arney, Tilery",,54.2800661839,-7.70204078257,,,
10001583,"Articlave, 185-193 St Pauls Road",,55.1501663302,-6.77921474342,,,
10001584,"Articlave, 2-8 St Pauls Road",,55.1470153787,-6.77411826183,,,
10001585,"Articlave, 3-7 St Pauls Road",,55.1469455717,-6.7743243445,,,
10001586,"Articlave, Articlave",,55.1452927384,-6.76990415102,,,
10001587,"Articlave, Articlave Orange Hall",,55.1454378772,-6.77004087148,,,
10001588,"Articlave, Exorna Filling Station",,55.1514141562,-6.78090249454,,,
10001589,"Articlave, Exorna Park",,55.1502184952,-6.77904056986,,,
10001590,"Articlave, Exorna Service Station",,55.1513712844,-6.78110776668,,,
10001591,"Articlave, Gages Farm",,55.1410198345,-6.74735424142,,,
10001593,"Artigarvan, Liscurry Gardens",,54.8566657607,-7.39989191298,,,
10001594,"Artigarvan, Liscurry Park",,54.8568863607,-7.39907878202,,,
10001595,"Artigarvan, 32-40 Berryhill Road",,54.8557463976,-7.40845552705,,,
10001596,"Artigarvan, 5-13 Brownhill Park",,54.8416707988,-7.35618065211,,,
10001598,"Artigarvan, Dunn S House",,54.8617215355,-7.3867641368,,,
10001599,"Artigarvan, Glenmoran",,54.8559047735,-7.40776796374,,,
10001601,"Artikelly, Aghanloo Oh",,55.0696799015,-6.92618483839,,,
10001603,"Artikelly, Drummond Bridge",,55.0513814079,-6.92152566301,,,
10001606,"Artrea, Drumgarrel Road End",,54.6479374041,-6.69093116853,,,
10001607,"Artrea, Killybearn",,54.6478112005,-6.69172547799,,,
10001608,"Artrea, KillybearnCorner",,54.6453658326,-6.6866289424,,,
10001609,"Ashfield, Agnews",,54.3679051622,-6.21831392762,,,
10001610,"Ashfield, Agnews Garage",,54.3672067834,-6.2190982957,,,
10001611,"Ashfield, Browns Planting",,54.3715602961,-6.20964384446,,,
10001612,"Ashfield, Browns Plantng",,54.3714317949,-6.2112809894,,,
10001613,"Aughafatten, Antynanum Bridge",,54.9305680872,-6.05128374147,,,
10001614,"Aughafatten, Antynanum Path",,54.9336297936,-6.05112005809,,,
10001621,"Aughamullan, Annaghaboe Bridge",,54.5224487869,-6.65154080656,,,
10001622,"Aughamullan, Primary School",,54.5388032176,-6.62282907192,,,
10001624,"Aughamullan, Bogside Road",,54.5408249626,-6.64189391501,,,
10001625,"Aughamullan, Canavans Shop",,54.5411066281,-6.64457369441,,,
10001626,"Aughamullan, Coole Bridge",,54.5460201672,-6.63323563579,,,
10001627,"Aughamullan, Coole Cottages",,54.5491842877,-6.63651512069,,,
10001629,"Aughamullan, Derrytresk-F-C",,54.5173722819,-6.63796128509,,,
10001630,"Aughamullan, Devlins House",,54.5390163108,-6.6281380859,,,
10001632,"Aughamullan, Dormans House",,54.5433606134,-6.62929060798,,,
10001633,"Aughamullan, Falls Corner",,54.5362586522,-6.61718168891,,,
10001634,"Aughamullan, Falls Pub",,54.5340343848,-6.61991466193,,,
10001636,"Aughamullan, Fitzgeralds House",,54.5248252164,-6.62635843036,,,
10001637,"Aughamullan, Hannas House",,54.541616384,-6.62682990952,,,
10001638,"Aughamullan, Kennedys House",,54.5399373154,-6.63408803278,,,
10001639,"Aughamullan, Killarry Lane",,54.5407857076,-6.6472116252,,,
10001640,"Aughamullan, Killen Crossroads",,54.5512912039,-6.64088147607,,,
10001642,"Aughamullan, Kingsisland",,54.5169380805,-6.63054636113,,,
10001643,"Aughamullan, Mary Jo- Pantry",,54.5509103037,-6.64537710611,,,
10001644,"Aughamullan, Mc Canns House",,54.5386262781,-6.65340277976,,,
10001646,"Aughamullan, McCluskeys House",,54.5378026462,-6.62018929483,,,
10001648,"Aughamullan, Ohanlons House",,54.5266994931,-6.65722510861,,,
10001649,"Aughamullan, ONeills House",,54.5401531992,-6.6245917817,,,
10001650,"Aughamullan, Oneils House",,54.5400806362,-6.62453240453,,,
10001651,"Aughamullan, Reenaderry Road",,54.5196891476,-6.62907954352,,,
10001652,"Aughamullan, Shamrock House",,54.5290442717,-6.62439363681,,,
10001653,"Aughamullan, The Ditches",,54.5179381744,-6.64514030952,,,
10001654,"Augher, Augher Village",,54.4285150456,-7.13221213143,,,
10001655,"Augher, Corick House",,54.4214413464,-7.14579812768,,,
10001656,"Augher, Dr Martins Gate",,54.4242256864,-7.13929887142,,,
10001657,"Augher, Glenhoy",,54.4353107706,-7.1413786173,,,
10001659,"Aughnacloy, 12-20 Dungannon Road",,54.4157132795,-6.97118807475,,,
10001661,"Aughnacloy, Moore Street",,54.4148979336,-6.97675489371,,,
10001662,"Aughnacloy, Aughnacloy House",,54.4177348847,-6.96905740325,,,
10001663,"Aughnacloy, Aughnacloy, Hillcrest",,54.4203623322,-6.9821967363,,,
10001664,"Aughnacloy, Lisdavil Park",,54.4153671062,-6.97168976248,,,
10001665,"Aughnacloy, Magees House",,54.4212476169,-6.96058670887,,,
10001666,"Aughnacloy, Old Chapel Road",,54.4327485874,-6.99123021371,,,
10001667,"Aughnacloy, The Church",,54.4133126101,-6.97312772742,,,
10001668,"Aughnacloy, Watson Motors",,54.413314881,-6.97445259354,,,
10001671,"Baileysmill, Blacks Lane",,54.4208307074,-5.94521835393,,,
10001677,"Baileysmill, Lough Erne Road",,54.4268881404,-5.96113024723,,,
10001682,"Ballagh Cross Roads, Ballagh Cross Roads",,54.2248179326,-7.34426978558,,,
10001683,"Ballagh Cross Roads, Coolnamarrow Lane",,54.2263015763,-7.32171783063,,,
10001684,"Ballagh Cross Roads, Killyfole",,54.2266709654,-7.31395173101,,,
10001685,"Ballee, 16-24 Larne Road",,54.8586554824,-6.27306871349,,,
10001686,"Ballee, 217-225 Queen Street",,54.856207541,-6.27660004028,,,
10001688,"Ballee, 3-7 Larne Road",,54.8572134086,-6.27087176717,,,
10001689,"Ballee, 6-14 Larne Road",,54.8586713257,-6.27355092133,,,
10001690,"Ballee, 71-79 Antrim Road",,54.8488061802,-6.2749222489,,,
10001691,"Ballee, 94-102 Larne Road",,54.8573174063,-6.270602518,,,
10001693,"Ballee, Carollhill Park",,54.8522126227,-6.28004101799,,,
10001694,"Ballee, Lettercreeve",,54.8512600933,-6.27497325819,,,
10001695,"Ballee, Lettercreeve Estate",,54.8482430067,-6.27323326226,,,
10001696,"Ballee, Lettercreeve",,54.8520896247,-6.27517146979,,,
10001698,"Ballee, Ballee Park and Ride",,54.8446057389,-6.27401147848,,,
10001699,"Ballee, Toome Road",,54.8543440706,-6.27762959638,,,
10001700,"Ballee, Ross Park",,54.8388249637,-6.27066172162,,,
10001701,"Ballee, Shanleeve",,54.8488722744,-6.27451452629,,,
10001702,"Ballee, Toome",,54.8563923769,-6.27632736488,,,
10001703,"Ballee, Wakehurst",,54.8564997973,-6.27376830399,,,
10001705,"Tassagh, Currans Crossroads",,54.2583552295,-6.61825581484,,,
10001707,"Tassagh, Shilling Hill",,54.2758604816,-6.66693007117,,,
10001708,"Tassagh, Bridge",,54.2650732953,-6.66660272783,,,
10001709,"Ballinamallard, 20-28 Baragh Road",,54.4240610903,-7.59769255899,,,
10001713,"Ballinamallard, 3-7 Enniskillen Road",,54.4194902901,-7.59582676233,,,
10001714,"Ballinamallard, 65-73 Enniskillen Road",,54.4162947741,-7.59950954269,,,
10001715,"Ballinamallard, Church",,54.4227472793,-7.59442332093,,,
10001716,"Ballinamallard, Barragh Gardens",,54.4271811581,-7.59564320793,,,
10001718,"Ballinamallard, Flowerdale",,54.4257598835,-7.61159121287,,,
10001719,"Ballinamallard, Mc Quaid Villas",,54.4195432209,-7.59553349448,,,
10001720,"Ballinamallard, Moores",,54.4232461206,-7.57232168914,,,
10001721,"Ballinamallard, Orange Hall",,54.4164104561,-7.59916947066,,,
10001722,"Ballinamallard, Ramseys Xrds",,54.4108246956,-7.60558599919,,,
10001729,"Ballindarragh, White Cottage",,54.282825139,-7.51413193424,,,
10001730,"Ballinderry Bridge, Ballinderry Bridge",,54.6595731796,-6.5617074117,,,
10001731,"Ballinderry Bridge, Battrey Road",,54.6357346336,-6.54749186642,,,
10001732,"Ballinderry Bridge, Derrychrin",,54.6533303873,-6.56115304351,,,
10001733,"Ballinderry Bridge, Derrycrin Road",,54.645541285,-6.55450212108,,,
10001734,"Ballinderry Bridge, Derrycrin Road End",,54.6454542365,-6.5547376286,,,
10001735,"Ardboe, Duffs Corner",,54.6360081424,-6.55307435909,,,
10001736,"Ardboe, Duff's Corner",,54.6363682483,-6.55388260019,,,
10001737,"Ballinderry Bridge, Gort Road End",,54.6497280116,-6.55821207463,,,
10001738,"Ballinderry Lower, 13-21 Aghalee Road",,54.5365926931,-6.26333044483,,,
10001739,"Ballinderry Lower, Ballinderry Corner",,54.543783156,-6.25654864686,,,
10001740,"Ballinderry Lower, Ballinderry Corner",,54.5443001918,-6.25688210655,,,
10001741,"Ballinderry Lower, Dispensary",,54.5357345083,-6.26364505531,,,
10001742,"Ballinderry Lower, Halfway",,54.5419449192,-6.23883711395,,,
10001743,"Ballinderry Lower, Lakeland",,54.5532283625,-6.25221881735,,,
10001744,"Ballinderry Lower, SandhillsCorner",,54.5687145076,-6.30288823132,,,
10001746,"Ballinderry Upper, Antiques Shop",,54.5387207083,-6.20474336615,,,
10001747,"Ballinderry Upper, Ballinderry Railway Station",,54.5432592504,-6.20355484597,,,
10001748,"Ballinderry Upper, Ballinderry Upper",,54.5388397502,-6.20489268956,,,
10001749,"Ballinderry Upper, Clenaghan's Farm",,54.5350129702,-6.18093762533,,,
10001750,"Ballinderry Upper, Greenhall",,54.5479118462,-6.19976401624,,,
10001752,"Ballinderry Upper, Meetinghouse Lane",,54.5367087125,-6.19154107544,,,
10001753,"Ballinderry Upper, North Street",,54.5417477047,-6.20403857737,,,
10001754,"Ballinderry Upper, Pound Bridge",,54.5409259293,-6.22446082495,,,
10001755,"Ballinderry Upper, Tansy Road",,54.5512441558,-6.19844230191,,,
10001756,"Ballinderry Upper, Temple Road",,54.5375279057,-6.19825847568,,,
10001757,"Ballinderry Upper, White Lane",,54.5295516242,-6.1614951991,,,
10001758,"Ballinderry, Ballinderry Church",,54.6777647355,-6.54549546659,,,
10001759,"Ballinderry, Ballinderry Chapel",,54.6713030094,-6.54692027715,,,
10001760,"Ballinderry, Ballyinderry Chapel",,54.6716265488,-6.54692422868,,,
10001761,"Ballinderry, Scotchtown Lane",,54.6614300955,-6.55841767425,,,
10001765,"Ballintoy, Youth Hostel",,55.2366209241,-6.36144801949,,,
10001766,"Ballintoy, Main Street",,55.236522987,-6.35750529376,,,
10001767,"Ballintoy, Ballintoy Harbour",,55.2368093804,-6.36544994512,,,
10001769,"Ballintoy, Ballintoy School",,55.2334659898,-6.37885719837,,,
10001772,"Ballintoy, Carrick-a-Rede Rope Bridge",,55.2368618295,-6.35065126982,,,
10001777,"Ballintoy, Whitepark Road Carrick A Rede",,55.2361260528,-6.33550806214,,,
10001779,"Ardee, Bypass",,53.8646471737,-6.54134544978,,,
10001787,"Ballyalton, Post Office",,54.3271343335,-5.66124248521,,,
10001788,"Ballyalton, Ballymurry Crossroads",,54.315020728,-5.62958571418,,,
10001789,"Ballyalton, Kellys Lane",,54.3211671928,-5.64742081326,,,
10001791,"Moneyreagh, Maryland",,54.5475831678,-5.83992733721,,,
10001792,"Moneyreagh, Moneyreagh Rv",,54.5424278658,-5.83358396331,,,
10001793,"Moneyreagh, Moneyreagh Road",,54.5396676933,-5.83051529183,,,
10001795,"Ballybogey (Ballymoney), Ballybogey Village",,55.1304584734,-6.55614907403,,,
10001796,"Ballybogey (Ballymoney), Carsons Shop",,55.1303777048,-6.55539926015,,,
10001797,"Ballybogey (Ballybogy), Ballyversal Road",,55.1370560643,-6.58083348271,,,
10001798,"Ballybogey (Ballybogy), Ballyversal Road End",,55.1372470829,-6.58026206297,,,
10001799,"Ballybogey (Ballymoney), Boyds House",,55.1346696537,-6.53333431245,,,
10001801,"Ballybogey (Ballymoney), Killmoyle School",,55.1324711222,-6.5433107187,,,
10001802,"Ballybogey (Ballymoney), Kilmoyle School",,55.1325169308,-6.54188192257,,,
10001804,"Ballycairn, Christie School",,55.1402392514,-6.68269225511,,,
10001805,"Ballycairn, Marina (UUC)",,55.145469626,-6.67450362923,,,
10001806,"Ballycarry, 1-5 General Steele Close",,54.7718409237,-5.75065588085,,,
10001808,"Ballycarry, 59-67 Main Street",,54.7716399057,-5.75096239406,,,
10001810,"Ballycarry, Village",,54.7733708544,-5.75125498185,,,
10001811,"Ballycarry, Crossroads",,54.7762623422,-5.73663590363,,,
10001813,"Ballycarry, Island Road",,54.7754123637,-5.73780273267,,,
10001816,"Ballycarry, Milltown",,54.762103288,-5.75234621014,,,
10001817,"Ballycarry, Milltown Cemetery",,54.762078369,-5.75245638162,,,
10001819,"Ballycarry, West Street",,54.7734493004,-5.75160818253,,,
10001820,"Ballycarry, Woodlands",,54.7740912498,-5.74600707923,,,
10001821,"Ballycassidy, Ballycassidy Po",,54.4043641145,-7.64925115082,,,
10001823,"Ballycassidy, Hidden Dip",,54.4121979231,-7.65814997546,,,
10001824,"Ballycassidy, Jubilee Hill",,54.3945158857,-7.64303723866,,,
10001826,"Ballycassidy, Laragh Xrds",,54.4011093179,-7.64545952094,,,
10001827,"Ballycassidy, Lay By",,54.3820520816,-7.63666465602,,,
10001829,"Ballycassidy, Manor House",,54.4265293198,-7.67431941817,,,
10001830,"Ballycassidy, Rosfad",,54.4171795423,-7.66590437949,,,
10001831,"Ballycassidy, Trory",,54.3859135596,-7.63890902644,,,
10001832,"Ballycassidy, Trory Xrds",,54.3858515376,-7.6392020777,,,
10001833,"Ballycastle, 2-10 Market Street",,55.2014626148,-6.25218085457,,,
10001835,"Ballycastle, 53-61 Coleraine Road",,55.197450286,-6.26190768934,,,
10001836,"Ballycastle, Ballycastle Bus Station",,55.2011910046,-6.24828084105,,,
10001837,"Ballycastle, Ballycastle Pres Church",,55.1999816561,-6.25669166545,,,
10001838,"Ballycastle, Primary School",,55.2039318695,-6.24267713946,,,
10001840,"Ballycastle, Carnduff Cottages",,55.2118022257,-6.27597540116,,,
10001841,"Ballycastle, Carnduff Houses",,55.2119285098,-6.27664567167,,,
10001842,"Ballycastle, Drumawillan Park",,55.1949680778,-6.26427776026,,,
10001843,"Ballycastle, Fair Head Van Park",,55.2028937608,-6.26999742117,,,
10001844,"Ballycastle, Fogarty Crescent",,55.1982931863,-6.26367754246,,,
10001845,"Ballycastle, Golf Club Corrymeela Road",,55.2025215575,-6.22718531385,,,
10001847,"Ballycastle, Hayes Caravan Park",,55.2093659421,-6.25441156348,,,
10001849,"Ballycastle, High School",,55.2048502639,-6.24717743361,,,
10001850,"Ballycastle, Hillhead",,55.1968097654,-6.26235972606,,,
10001851,"Ballycastle, Leyland Cottages",,55.2015818341,-6.25988955118,,,
10001852,"Ballycastle, Leyland Road Upper",,55.2049728984,-6.26960872366,,,
10001853,"Ballycastle, Leyland Upper",,55.2048016092,-6.26956901851,,,
10001854,"Ballycastle, Marine Corner",,55.2049028949,-6.23960194837,,,
10001855,"Ballycastle, Presbyterian Church",,55.1998768158,-6.25627207762,,,
10001856,"Ballycastle, Silvercliffs Caravan Park",,55.2094268144,-6.24925479439,,,
10001858,"Ballycastle, Strandview",,55.2057529488,-6.24683923285,,,
10001859,"Ballycastle, Strandview Lower",,55.2058473056,-6.24278130088,,,
10001860,"Ballycastle, The Anzac",,55.2013050046,-6.25184212787,,,
10001861,"Ballycastle, White Park Drive",,55.2013562586,-6.26676488785,,,
10001862,"Ballycastle, Whitesides Corner",,55.2083405658,-6.2701068634,,,
10001863,"Ballycastle, Woodsides Corner",,55.2091343725,-6.27032385011,,,
10001864,"Ballyclare, 2-6 Hollybush Gardens",,54.7538355453,-5.98551516907,,,
10001866,"Ballyclare, 6-14 The Square",,54.7524267038,-6.00084239721,,,
10001867,"Ballyclare, 76-84 Clough View",,54.7506623956,-6.00830904712,,,
10001868,"Ballyclare, B,F,S The Longshot",,54.7236334372,-6.02385664733,,,
10001870,"Ballyclare, Secondary School",,54.7520384142,-6.00345617064,,,
10001872,"Ballyclare, Ballyeaston Road",,54.7609580029,-6.00265960743,,,
10001873,"Ballyclare, Ballynure Road",,54.7532181724,-5.98730153987,,,
10001874,"Ballyclare, Bfs The Longshot",,54.7234523294,-6.02377230645,,,
10001875,"Ballyclare, Boyce's Halt",,54.7427856716,-5.99007135766,,,
10001876,"Ballyclare, Clare Heights",,54.7491434492,-6.01377447672,,,
10001879,"Ballyclare, Elim Church",,54.7492198737,-5.99820400776,,,
10001880,"Ballyclare, Erskine Park",,54.7577646709,-6.00684146511,,,
10001883,"Ballyclare, Graveyard",,54.7476585447,-6.01968834291,,,
10001886,"Ballyclare, Henryville",,54.7542557142,-5.98484171952,,,
10001887,"Ballyclare, High School,Rashee Road",,54.7548953821,-6.00340876651,,,
10001888,"Ballyclare, Lisagore",,54.7283554583,-6.00982275041,,,
10001889,"Ballyclare, Lisamor",,54.7287161637,-6.00989823542,,,
10001890,"Ballyclare, Main Street",,54.751282536,-5.99903440945,,,
10001891,"Ballyclare, Margaret  Avenue",,54.7553515071,-6.00382137736,,,
10001892,"Ballyclare, Marvista Avenue",,54.7492522972,-6.01328754255,,,
10001893,"Ballyclare, Memorial Park",,54.7511878853,-5.99439368299,,,
10001894,"Ballyclare, Mill Road",,54.7469636792,-6.00089410839,,,
10001895,"Ballyclare, Millvale",,54.7534013655,-5.98750997216,,,
10001898,"Ballyclare, Papas Lane",,54.7500595845,-5.99626717936,,,
10001899,"Ballyclare, Paper Mill",,54.7447750972,-6.00441941219,,,
10001900,"Ballyclare, Police Station",,54.7518700335,-5.99325684938,,,
10001902,"Ballyclare, Ross Avenue",,54.7583028747,-6.00732780523,,,
10001903,"Ballyclare, Safeway Ballyclare",,54.7512420068,-5.99875675249,,,
10001904,"Ballyclare, Secondary School",,54.751581675,-6.00464389335,,,
10001905,"Ballyclare, Size Hill",,54.7344318414,-6.01429253622,,,
10001906,"Ballyclare, Sizehill",,54.7342150639,-6.01422549153,,,
10001907,"Ballyclare, The Chapel",,54.7507261199,-6.00726499119,,,
10001908,"Ballyclare, The Cloughan",,54.7481746773,-6.01717751485,,,
10001909,"Ballyclare, The Longhot",,54.7213821417,-6.01642107023,,,
10001910,"Ballyclare, The Longshoi",,54.721278196,-6.01665902125,,,
10001911,"Ballyclare, The Square",,54.7520641584,-6.00174586033,,,
10001912,"Ballyclare, Thornditch",,54.7435302661,-6.02885260599,,,
10001914,"Ballyclare, Victoria Road",,54.762069566,-6.00740689529,,,
10001915,"Ballyclare, Victoria Road ",,54.7617568192,-6.00751550638,,,
10001916,"Ballyclare, Walkers Lane",,54.7415348214,-6.01012393803,,,
10001921,"Ballyculter, Ballynarry Crossroads",,54.3309467502,-5.59325212438,,,
10001922,"Ballyculter, Ballynarry Crossroads",,54.3303860714,-5.59353093892,,,
10001925,"Ballydivity, Ballydivity Miskellys House",,55.1533391276,-6.49630905571,,,
10001926,"Ballydivity, Ballydivity Miskellys House",,55.1535636556,-6.49630060868,,,
10001927,"Ballydivity, Benvarden Bridge",,55.1406836919,-6.51797678349,,,
10001928,"Ballydivity, Benvardin Bridge",,55.1404786489,-6.51810986984,,,
10001929,"Ballydivity, U S P C A",,55.1402606902,-6.50834567245,,,
10001930,"Ballydivity, Uspca Centre",,55.1404596197,-6.5084480535,,,
10001934,"Ballydugan, Crossroads",,54.308318896,-5.7474288684,,,
10001935,"Ballydugan, Crossroads",,54.3080737181,-5.74825685928,,,
10001936,"Ballydugan, Grants Corner",,54.2866711043,-5.76209835676,,,
10001938,"Ballydugan, Racecourse",,54.3163326836,-5.73095706416,,,
10001939,"Ballydugan, Racecourse Entrance",,54.3172195884,-5.72889434895,,,
10001940,"Ballydullaghan, Ballylame",,54.9372204993,-6.67707107732,,,
10001941,"Ballydullaghan, Ballylame Road",,54.9407525387,-6.67879680841,,,
10001942,"Ballydullaghan, Lintons House",,54.9544949869,-6.68329528202,,,
10001943,"Ballydullaghan, Lintons House Lisachrin",,54.9543582265,-6.68311239857,,,
10001948,"Ballyeaston, Ballyboley Inn",,54.8259792293,-5.97843749968,,,
10001949,"Ballyeaston, Ballyeaston",,54.7715826734,-6.00008427128,,,
10001951,"Ballyeaston, Ballyeaston Church",,54.7715129366,-5.99694777834,,,
10001956,"Ballyeaston, Skilganaban",,54.7569738891,-5.97861548916,,,
10001957,"Ballyeaston, Templepatrick Road",,54.758316802,-5.97615551158,,,
10001958,"Ballyeaston, Trenchill Road",,54.771309123,-6.0151600191,,,
10001959,"Ballyeaston, Victoria Road ",,54.763645408,-6.00213869693,,,
10001960,"Ballygally, Ballygally Cafe",,54.8990392349,-5.85985321345,,,
10001961,"Ballygally, Ballygally Holiday Apts",,54.8998420865,-5.85238781422,,,
10001967,"Ballygally, Carnfunnock Country Park",,54.8899998521,-5.84366656614,,,
10001968,"Ballygally, 171 Coast Road",,54.8855709519,-5.83970984523,,,
10001969,"Ballygally, Droagh Cottage",,54.8852793798,-5.83999045694,,,
10001970,"Ballygally, Halfway House",,54.9064291148,-5.87639902198,,,
10001971,"Ballygally, Halfway House",,54.9057769486,-5.87610583829,,,
10001976,"Ballygarvey, Adams Lane",,54.8980200747,-6.25587011798,,,
10001977,"Ballygarvey, Bally Road",,54.8894100711,-6.26204124907,,,
10001978,"Ballygarvey, Ballylig Road End",,54.8894318851,-6.26168176648,,,
10001979,"Ballygarvey, Parade Road",,54.8962787317,-6.25663141258,,,
10001985,"Ballygawley, Ardbeg",,54.4650555179,-7.01670526252,,,
10001986,"Ballygawley, Ardbeg Road",,54.4650356677,-7.01647435686,,,
10001987,"Ballygawley, Grange Road",,54.4591237487,-7.0298954931,,,
10001988,"Ballygawley, Ballygawley Turnoff",,54.4674748418,-7.04726852574,,,
10001989,"Ballygawley, Ballygawley Park and Ride",,54.4564958704,-7.03387487698,,,
10001990,"Ballygawley, Cavey Lane",,54.4719841391,-7.05279496723,,,
10001991,"Ballygawley, Greenhill Kitchens",,54.4742562174,-7.06648957538,,,
10001995,"Ballygawley, Police Station",,54.4617807636,-7.027318506,,,
10001996,"Ballygawley, Tullyvar",,54.4421498353,-7.00558352604,,,
10001997,"Glencairn, Forthriver Dale",,54.6200294317,-5.9832131648,,,
10001998,"Glencairn, Forthriver Drive",,54.6169194602,-5.98048676223,,,
10001999,"Glencairn, Forthriver Way",,54.6147179014,-5.97780861769,,,
10002000,"Glencairn, Glencairn Mission Hall",,54.6189148573,-5.98212234304,,,
10002002,"Ballygowan, Depot",,54.5013675356,-5.79347701586,,,
10002003,"Ballygowan, Square",,54.5023082348,-5.79232989801,,,
10002005,"Ballygowan, Bus Station",,54.5010718077,-5.79352383873,,,
10002006,"Ballygowan, Carrickmannon Road",,54.4967940486,-5.78714587402,,,
10002007,"Ballygowan, Chip Shop",,54.5021834924,-5.79042176463,,,
10002008,"Ballygowan, Glovers House",,54.49462351,-5.80166827823,,,
10002010,"Ballygowan, Moneyreagh Road",,54.5135862423,-5.80262686819,,,
10002011,"Ballygowan, Moss Road",,54.4999608577,-5.78879682108,,,
10002012,"Ballygowan, Old Ballygowan Road",,54.5121661886,-5.78342627948,,,
10002013,"Ballygowan, Orange Hall",,54.50262057,-5.78974958466,,,
10002014,"Ballygowan, Pattersons Farm",,54.522064896,-5.78460489817,,,
10002015,"Ballygowan, Post Office",,54.5015030234,-5.79302189075,,,
10002016,"Ballygowan, Prospect Road",,54.5044042798,-5.79391561432,,,
10002017,"Ballygowan, Quarry Close",,54.5040478147,-5.78670744029,,,
10002019,"Ballygowan, Shepards Bridge",,54.483399823,-5.81463426095,,,
10002020,"Ballygowan, Simpsons Corner",,54.5184039809,-5.80711081642,,,
10002021,"Ballygowan, The Cottages",,54.496646721,-5.78695311152,,,
10002023,"Ballygowan, The Crescent",,54.5047087365,-5.79434706374,,,
10002025,"Ballygowan, Tullygarvan Road",,54.5069178437,-5.79622032377,,,
10002026,"Ballygowan, Village Hall",,54.5029513447,-5.79260407019,,,
10002027,"Ballyhackamore, Astoria Gardens",,54.5949379814,-5.86532649588,,,
10002028,"Ballyhackamore, Ballyhackamore",,54.595302974,-5.87073996929,,,
10002029,"Ballyhackamore, Belmont Church Road",,54.5947772407,-5.8618215761,,,
10002030,"Ballyhackamore, Castleview Terrace",,54.5954237802,-5.8709658261,,,
10002031,"Ballyhackamore, Clara Park",,54.590472761,-5.86489464265,,,
10002032,"Ballyhackamore, Clara Road Entrance",,54.5894260083,-5.86414470114,,,
10002033,"Ballyhackamore, Clara Way",,54.5880513181,-5.86875072597,,,
10002034,"Ballyhackamore, Clarawood Park",,54.5881541516,-5.86795614603,,,
10002035,"Ballyhackamore, Greenwood  Primary",,54.5948941579,-5.86080942574,,,
10002036,"Ballyhackamore, Hewitt Parade",,54.5941947462,-5.86853816598,,,
10002037,"Ballyhackamore, Hillview Avenue",,54.5950713767,-5.86728513692,,,
10002039,"Ballyhackamore, Kings Road",,54.5925360927,-5.86774266001,,,
10002044,"Ballyhackamore, Sandown Road",,54.5894314663,-5.86445391934,,,
10002047,"Ballyhackamore, Stock Brothers",,54.5945914488,-5.86861030412,,,
10002048,"Belmont, Strathern Court",,54.5997511119,-5.86408396311,,,
10002056,"Ballyhagan, Crossroads",,54.4098788276,-6.56332863082,,,
10002057,"Ballyhagan, Crossroads",,54.4098520668,-6.56259010026,,,
10002058,"Ballyhagan, Eddies Corner",,54.4098110831,-6.5781048876,,,
10002059,"Ballyhalbert, Ballyeasborough Church",,54.477707081,-5.46179861639,,,
10002061,"Ballyhalbert, Ballyhalbert School",,54.4936578737,-5.46422222983,,,
10002062,"Ballyhalbert, Caravan Park",,54.4994557357,-5.46424915563,,,
10002064,"Ballyhalbert, Harbour Road",,54.4926749406,-5.45466395732,,,
10002066,"Ballyhalbert, Nursery Road",,54.5052629791,-5.46643774947,,,
10002068,"Ballyhalbert, Roddens Road",,54.5161859699,-5.47170915816,,,
10002069,"Ballyhalbert, Sandylands",,54.4889701763,-5.44096853583,,,
10002070,"Ballyhalbert, Shore Road",,54.4961313472,-5.46173738911,,,
10002071,"Ballyhalbert, The Moatlands",,54.4929269074,-5.46579607062,,,
10002072,"Ballyhalbert, Victoria Gardens",,54.4936742927,-5.46457634215,,,
10002075,"Ballyholme, Carnaboy",,55.1659901829,-6.59886050694,,,
10002076,"Ballyholme, Cloyfin Road",,55.1679625564,-6.59379983911,,,
10002078,"Ballyhornan, BallywoodenCorner",,54.3086499376,-5.5567269635,,,
10002079,"Ballyhornan, Benderg Park",,54.3036983718,-5.55322427438,,,
10002080,"Ballyhornan, Cable Station",,54.3020152612,-5.55576767869,,,
10002082,"Ballyhornan, Raf Bishopscourt",,54.3020602113,-5.56955024491,,,
10002083,"Ballyhornan, Ringawoody Crossroads",,54.3010596686,-5.56584411181,,,
10002084,"Ballyhornan, Ringawoody Crossroads",,54.301466119,-5.56549739437,,,
10002086,"Ballykelly, 333-341 Clooney Road",,55.0429661545,-7.04113700901,,,
10002090,"Ballykelly, Main Street",,55.044417256,-7.01803821517,,,
10002091,"Ballykelly, Ballykelly Road",,55.0475268213,-6.99719650227,,,
10002092,"Ballykelly, Farloe Road",,55.0506690563,-6.98497372959,,,
10002093,"Ballykelly, Kings Lane",,55.0446917708,-7.00867433096,,,
10002094,"Ballykelly, Kings Lane",,55.0452309907,-7.00648598832,,,
10002096,"Ballykelly, Walworth 2",,55.043069169,-7.03484454803,,,
10002097,"Ballykelly, Walworth 3",,55.0430318688,-7.03015141671,,,
10002098,"Ballykelly, Walworth 4",,55.0428609264,-7.03125081575,,,
10002100,"Ballykinler, Marian Park",,54.2579821587,-5.79377150244,,,
10002101,"Ballykinler, Marian Park",,54.2579145333,-5.79351414862,,,
10002102,"Ballykinler, 70-78 Commons Road",,54.2580937965,-5.79840153357,,,
10002103,"Ballykinler, Camp",,54.2560785485,-5.79976764821,,,
10002106,"Ballykinler, Heenans Lane",,54.2576510426,-5.78649754376,,,
10002108,"Ballyknockan, Irelands Corner",,54.483353997,-5.84561513326,,,
10002109,"Ballyknockan, Milleniem School",,54.4958665473,-5.85737050477,,,
10002110,"Ballyknockan, Prices Entrance",,54.4830885651,-5.84484190454,,,
10002111,"Ballyknockan, YeatesCorner",,54.4886143946,-5.85335031654,,,
10002112,"Ballylesson, Ballycoan Road",,54.5234263115,-5.9293461463,,,
10002113,"Ballylesson, Blacks Bridge",,54.528470168,-5.9564096813,,,
10002114,"Ballylesson, Church",,54.5359951307,-5.94649808144,,,
10002115,"Ballylesson, Edenderry Village Entrance",,54.5410282075,-5.94493146641,,,
10002116,"Ballylesson, Mill Road",,54.525977495,-5.96741161672,,,
10002117,"Ballylintagh, Aghadowey Creamery",,55.0659439256,-6.67052650091,,,
10002118,"Ballylintagh, Collins Lane",,55.0509958059,-6.64959620693,,,
10002120,"Ballylintagh, Lisnamuck Road End",,55.0577436076,-6.6577122218,,,
10002122,"Ballylintagh, Mcilroys Farm",,55.053533303,-6.65235938642,,,
10002123,"Ballylintagh, Reids Lane",,55.0627621202,-6.66468301979,,,
10002124,"Ballylintagh, Workmans Farm",,55.0487446231,-6.64672981989,,,
10002125,"Ballylumford, Ballylumford Village",,54.8477903408,-5.78929145537,,,
10002126,"Ballylumford, Browns Bay",,54.8524376163,-5.76383508955,,,
10002127,"Larne, Harbour Roundabout Asda",,54.8455487652,-5.80095393057,,,
10002128,"Larne, Larne Harbour bus stop",,54.8480059721,-5.79818817731,,,
10002129,"Ballymacarret, Albertbridge Road",,54.5947318244,-5.90443253138,,,
10002130,"Ballymacarret, Avoniel",,54.5962241536,-5.89824220677,,,
10002131,"Ballymacarret, Avoniel Road",,54.5919748487,-5.89626349002,,,
10002132,"Ballymacarret, Bloomfield Commercial Centre",,54.5974445345,-5.89400023899,,,
10002133,"Ballymacarret, Bryson Street",,54.5998723353,-5.90650579394,,,
10002134,"Ballymacarret, Calvin Street",,54.5926442794,-5.90169210883,,,
10002135,"Ballymacarret, Clara Street",,54.5916806359,-5.89536557803,,,
10002136,"Ballymacarret, Dee Street",,54.5988988194,-5.89804249021,,,
10002137,"Ballymacarret, Glenmore Street",,54.5958414572,-5.90001088071,,,
10002138,"Ballymacarret, Hornby Street",,54.59688985,-5.89621126028,,,
10002139,"Ballymacarret, Hunt Street",,54.5982232825,-5.89382073058,,,
10002140,"Ballymacarret, John Long's Corner",,54.591935295,-5.89915954768,,,
10002141,"Ballymacarret, Madrid Street",,54.5963716939,-5.90727358351,,,
10002142,"Ballymacarret, Mountpottinger Road",,54.5969098582,-5.90825204039,,,
10002143,"Ballymacarret, Paxton Street",,54.5936699012,-5.90227390793,,,
10002144,"Ballymacarret, Pottinger Street",,54.5926893092,-5.90325289993,,,
10002145,"Ballymacarret, Ribble Street",,54.5983278,-5.89362959273,,,
10002146,"Ballymacarret, Templemore Avenue",,54.5953334329,-5.90232767196,,,
10002147,"Ballymacarret, The Green",,54.5957448017,-5.90636161525,,,
10002148,"Ballymacarret, The Mount",,54.5951296781,-5.90613006811,,,
10002149,"Ballymacarret, Tower Street",,54.5997938385,-5.90508575535,,,
10002150,"Ballymacarret, Trillick Street",,54.5922979135,-5.89830516453,,,
10002151,"Ballymaconnelly, Dunlops Bridge",,54.9764498415,-6.4968347433,,,
10002154,"Ballymaconnelly, Mclaughlin's Corner",,54.9621269763,-6.52397985548,,,
10002155,"Ballymaconnelly, MclauughinsCorner",,54.9620177549,-6.52312496567,,,
10002161,"Ballymaconnelly, Slievenagh Xrds",,54.98558686,-6.49891523065,,,
10002162,"Ballymaconnelly, Slievenaghy X",,54.9854026057,-6.49854709758,,,
10002164,"Ballymacrea, Catering College",,55.1981135777,-6.64270569642,,,
10002165,"Ballymacrea, Rathmore Golf Club",,55.2005039133,-6.64273435066,,,
10002166,"Ballymacrea, Royal Portrush",,55.1992940949,-6.63576940502,,,
10002167,"Ballymacrea, Royal Portrush Golf Club",,55.19961954,-6.63594678472,,,
10002168,"Ballymacrevan, Aghadalon",,54.5777312205,-6.24578670832,,,
10002169,"Ballymacrevan, Aghadalgon Crossroads",,54.5781921726,-6.24534922007,,,
10002170,"Ballymacrevan, Bell's Corner",,54.5865236968,-6.2404729856,,,
10002173,"Ballymacrevan, Cockhill Corner",,54.5618985702,-6.25147679926,,,
10002174,"Ballymacrevan, Cockhill Corner",,54.5619030834,-6.25116733413,,,
10002176,"Ballymacrevan, Drachaen Road",,54.5793622138,-6.25728835132,,,
10002177,"Glenavy, Edenturcher Crossroads",,54.5867744968,-6.24103467715,,,
10002178,"Ballymacrevan, Lodge Corner",,54.5702561211,-6.27087004064,,,
10002179,"Ballymacrevan, Mccanns Shop",,54.5709294787,-6.28408123918,,,
10002180,"Ballymacrevan, Rose Lane Ends",,54.568844346,-6.24831821597,,,
10002181,"Ballymacrevan, Roselane Ends",,54.5689559208,-6.2485763576,,,
10002182,"Ballymagorry, 392-400 Victoria Road",,54.8641926003,-7.42350384459,,,
10002183,"Ballymagorry, Ballymagorry Village",,54.8596100423,-7.4291451232,,,
10002184,"Ballymagorry, Ballymagorry Main Street",,54.857881282,-7.43027532893,,,
10002185,"Ballymagorry, Cloughcor",,54.8805640893,-7.41998210146,,,
10002186,"Ballymagorry, Fountain Street",,54.8521627105,-7.42177557814,,,
10002187,"Ballymagorry, Lowrys Lane",,54.8749414111,-7.4222441929,,,
10002188,"Ballymagorry, Pound Brae",,54.856407579,-7.43023380434,,,
10002189,"Ballymagorry, Victoria Road",,54.8654333055,-7.423673073,,,
10002190,"Ballymagorry, Wood End Road",,54.8560639132,-7.42975586043,,,
10002191,"Ballymagrorty, 2-6 Shaw Court",,55.0199914206,-7.35119956266,,,
10002192,"Ballymagrorty, Friel Close",,55.0196277427,-7.35376994004,,,
10002193,"Ballymagrorty, Drummard Park",,55.0157922143,-7.35056375831,,,
10002194,"Ballymagrorty, Inchview",,55.0151730099,-7.35238748261,,,
10002196,"Ballymagrorty, Magill Court",,55.0185600699,-7.35744612464,,,
10002197,"Ballymagrorty, Marianus Park",,55.0138724236,-7.35111073891,,,
10002198,"Ballymagrorty, O'Riada Court",,55.0197348845,-7.35364311859,,,
10002199,"Ballymagrorty, Hazelbank",,55.0139831463,-7.35165617696,,,
10002200,"Ballymaguigan, Atkinsons Bar",,54.7644356185,-6.5014249219,,,
10002204,"Ballymaguigan, Mclarnons Lane",,54.7675563747,-6.51259257246,,,
10002206,"Ballymaguigan, Mcvies Shop",,54.7647337424,-6.50155376705,,,
10002207,"Ballymaguigan, Montgomerys Lane",,54.7673881975,-6.51280077754,,,
10002209,"Ballymarlagh, Barrs Lane",,54.8247706666,-6.22337223651,,,
10002210,"Ballymarlagh, Byrestown Roadend",,54.8277637796,-6.22649390681,,,
10002211,"Ballymarlagh, Doctors Road",,54.8494961865,-6.24035091094,,,
10002212,"Ballymarlagh, Liminary Xrds",,54.8320483969,-6.23438520873,,,
10002213,"Ballymarlagh, Marlow X-Rds",,54.8471640866,-6.22952045829,,,
10002214,"Ballymarlagh, Marlowe X-Rds",,54.8468522963,-6.22847518363,,,
10002215,"Ballymarlagh, Moorfields Road",,54.8449790376,-6.22081808945,,,
10002217,"Ballymartin, 149-157 Newcastle Road",,54.0739580623,-5.97678830891,,,
10002218,"Ballymartin, 17-25 Main Road",,54.0803204764,-5.95231363512,,,
10002219,"Ballymartin, 18-26 Main Road",,54.0806164369,-5.95174880621,,,
10002220,"Ballymartin, 3-7 School Road",,54.0811955958,-5.94987078407,,,
10002221,"Ballymartin, 43-51 Annalong Road",,54.0816392424,-5.94795354034,,,
10002222,"Ballymartin, Ballykeel Road",,54.0918363302,-5.95564505743,,,
10002224,"Ballymartin, Binnian Park",,54.0820271849,-5.94698670092,,,
10002225,"Ballymartin, Black Rock",,54.0843857996,-5.93985384005,,,
10002226,"Ballymartin, Blackrock",,54.0839619957,-5.94082257892,,,
10002227,"Ballymartin, Pats Road",,54.0763216242,-5.96134425224,,,
10002229,"Ballymartin, Valley Road",,54.1001443983,-5.94477657392,,,
10002232,"Ballymena, Rathlin Drive Ballymoney Road",,54.8769609469,-6.29475801071,,,
10002233,"Ballymena, 206-214 Cullybackey Road",,54.8695160297,-6.29123939056,,,
10002234,"Ballymena, 211-219 Orkney Drive",,54.8616082876,-6.25459151264,,,
10002235,"Ballymena, 46-54 Larne Street",,54.8608389512,-6.2768542544,,,
10002236,"Ballymena, Cushendall Road Clinic",,54.8744781253,-6.27105201824,,,
10002238,"Ballymena, 98-106 Lower Mill Street",,54.8655375627,-6.2786791859,,,
10002239,"Ballymena, Ballkeel",,54.8593719987,-6.25280326524,,,
10002240,"Ballymena, Ballygarvey Road",,54.8846055923,-6.26539666656,,,
10002241,"Ballymena, Ballykeel",,54.8585394797,-6.25364926378,,,
10002242,"Ballymena, Ballykeel ",,54.8579375746,-6.26242937818,,,
10002243,"Ballymena, Ballykeel  Mural",,54.8625492929,-6.25254123561,,,
10002244,"Ballymena, Ballykeel  Playpark",,54.8617154711,-6.25204764169,,,
10002246,"Ballymena, Ballymena Primary School",,54.8706570762,-6.28230965059,,,
10002248,"Ballymena, Ballymoney Road",,54.8760922664,-6.29241040282,,,
10002249,"Ballymena, Ballymoney Road",,54.8755729221,-6.29126360826,,,
10002250,"Ballymena, Brookpark Wilson Crescent",,54.8558164898,-6.2668039394,,,
10002252,"Ballymena, Broadway",,54.8666837619,-6.27333313933,,,
10002256,"Ballymena, Camebridge Ave",,54.8603796217,-6.29396242575,,,
10002257,"Ballymena, Carninny Court",,54.8691300435,-6.28871602911,,,
10002258,"Ballymena, Carninny Crossroads",,54.8801022101,-6.29961258849,,,
10002259,"Ballymena, Carninny Shop",,54.8787602517,-6.30132106999,,,
10002261,"Ballymena, Carnview",,54.8746564189,-6.29510465105,,,
10002262,"Ballymena, Cemetery",,54.8474652286,-6.29066106916,,,
10002263,"Ballymena, Cemetery",,54.8774129863,-6.27080168389,,,
10002264,"Ballymena, Broughshane Road",,54.8712482344,-6.27014630488,,,
10002265,"Ballymena, Circular Road",,54.8755061157,-6.2846123282,,,
10002266,"Ballymena, Circular Road Stop",,54.8737893814,-6.28649284541,,,
10002267,"Ballymena, Countryman",,54.8794889166,-6.29240702079,,,
10002268,"Ballymena, Crebilly Road",,54.8580592585,-6.26025898016,,,
10002270,"Ballymena, Grove Road",,54.8832292488,-6.26907185545,,,
10002271,"Ballymena, Dunclug Park",,54.8808892085,-6.26881371232,,,
10002272,"Ballymena, Doury Road",,54.8812581204,-6.27959874719,,,
10002273,"Ballymena, Eaton",,54.8782927994,-6.24319493699,,,
10002274,"Ballymena, Eaton Park",,54.8783053177,-6.24219697826,,,
10002275,"Ballymena, Fire Station",,54.8623635732,-6.27981142892,,,
10002276,"Ballymena, Fisherwick Place",,54.8734248833,-6.26399142448,,,
10002277,"Ballymena, Flagpole",,54.8835748177,-6.27884538738,,,
10002278,"Ballymena, Flexibox",,54.8592084606,-6.27720417537,,,
10002279,"Ballymena, FlexiboxQueen Street",,54.8590398173,-6.27735155921,,,
10002280,"Ballymena, Frys Road",,54.8801890297,-6.26131605388,,,
10002281,"Ballymena, Garage",,54.8699447253,-6.27137072871,,,
10002282,"Ballymena, Grove Road 1",,54.8821048292,-6.28355267064,,,
10002283,"Ballymena, Inishowen Park",,54.8703577003,-6.29678191873,,,
10002284,"Ballymena, Kintullagh House",,54.8703945841,-6.28981547712,,,
10002285,"Ballymena, Loughan Hill",,54.8760470172,-6.29750814625,,,
10002287,"Ballymena, Nothern Bank",,54.8547362755,-6.26227108677,,,
10002288,"Ballymena, Okanes Cottages",,54.8539874549,-6.25830046726,,,
10002289,"Ballymena, Old Ballymoney Road ",,54.8761426384,-6.28450737098,,,
10002290,"Ballymena, Old Cullybckey Road  End",,54.8699074548,-6.29223561033,,,
10002291,"Ballymena, Old Ballymoney Road",,54.8785509766,-6.29024926437,,,
10002292,"Ballymena, Pine Grove",,54.8803146628,-6.28914595372,,,
10002293,"Ballymena, Rowallane Drive",,54.8778863677,-6.27882293294,,,
10002294,"Ballymena, Sainsburys Supermarket",,54.8604473973,-6.26891078921,,,
10002295,"Ballymena, Sentry Hill",,54.877549037,-6.28801639935,,,
10002296,"Ballymena, Slemish College",,54.8546649351,-6.26545153901,,,
10002298,"Ballymena, St Patricks College",,54.8740783072,-6.26318419057,,,
10002300,"Ballymena, Suningdale",,54.8724680327,-6.29220524969,,,
10002302,"Ballymena, The Letterbox",,54.8582374305,-6.29883491724,,,
10002303,"Ballymena, The State",,54.8661722272,-6.27971156967,,,
10002304,"Ballymena, Thompson Shop",,54.8742578416,-6.27958531807,,,
10002305,"Ballymena, Waveney Hospital",,54.8742314379,-6.2707665036,,,
10002306,"Ballymena, Wellington Street",,54.8661390101,-6.27483650586,,,
10002307,"Ballymoney, 12-20 Kilraughts Road",,55.0719621491,-6.49657546646,,,
10002310,"Ballymoney, 35-43 Kilraughts Road",,55.0719319196,-6.49631039496,,,
10002312,"Ballymoney, 58-66 Kilraughts Road",,55.0734077086,-6.48344539184,,,
10002313,"Ballymoney, 85-93 Kilraughts Road",,55.0731605464,-6.48235856731,,,
10002314,"Ballymoney, Ballymoney High School",,55.0674768665,-6.50374248887,,,
10002315,"Ballymoney, Carnany Estate",,55.0683080862,-6.49390974919,,,
10002316,"Ballymoney, Cherry Gardens",,55.0660911138,-6.49847087386,,,
10002317,"Ballymoney, Cherry Gdns",,55.0659145764,-6.49872799253,,,
10002318,"Ballymoney, Dicks Lane",,55.0863801421,-6.50944357479,,,
10002319,"Ballymoney, Drundult Houses",,55.0793757614,-6.51346295436,,,
10002320,"Ballymoney, Dunloy Road",,55.0699196468,-6.50217944675,,,
10002321,"Ballymoney, Dunloy Road End",,55.0698787832,-6.50250979776,,,
10002322,"Ballymoney, Kirk Road",,55.0752793427,-6.50399938133,,,
10002323,"Ballymoney, Garden Centre",,55.0819074327,-6.50082298955,,,
10002324,"Ballymoney, Garryduff Road",,55.0701017061,-6.50164025996,,,
10002325,"Ballymoney, Joey Dunlop Centre",,55.0634702942,-6.49434193092,,,
10002326,"Ballymoney, Kilaughts Road End",,55.0706862587,-6.50168104854,,,
10002327,"Ballymoney, Lislagan Road",,55.0526255878,-6.4770626278,,,
10002328,"Ballymoney, Market Street",,55.0797227829,-6.51318382732,,,
10002329,"Ballymoney, Rodeing Foot",,55.0706597733,-6.50830562859,,,
10002330,"Ballymoney, Market Street",,55.0724723551,-6.51619310872,,,
10002331,"Ballymoney, The Bridge",,55.0643666063,-6.4804212369,,,
10002332,"Ballymoney, The Garden Centre",,55.0815875767,-6.50111688661,,,
10002333,"Ballymoney, Windsor Gardens",,55.0625791701,-6.49276287228,,,
10002334,"Ballymurphy, Ballymurphy Road",,54.5915735612,-5.9819270564,,,
10002335,"Ballymurphy, Brittons Parade",,54.590473715,-5.9752652019,,,
10002336,"Ballymurphy, Farset",,54.5983568009,-5.97428580099,,,
10002337,"Ballymurphy, J P Corry",,54.5975561273,-5.97638412094,,,
10002338,"Ballymurphy, Os Springfield Park",,54.5975175561,-5.9799923838,,,
10002339,"Ballymurphy, Springfield Park",,54.5976340309,-5.97997113874,,,
10002340,"Ballymurphy, St Maria Goretti Nursery Sch",,54.5907410577,-5.97727920534,,,
10002341,"Ballymurphy, Westcircular",,54.5993241648,-5.97355670664,,,
10002342,"Ballymurphy, Whiterock B.I.F.H.E",,54.5909507304,-5.980147237,,,
10002343,"Ballymurphy, Whiterock Orange Hall",,54.5983466076,-5.97475065379,,,
10002344,"Ballymurphy, Whiterock Road B.I.H.F.E",,54.5911380622,-5.98060222844,,,
10002345,"Ballynafeigh, Aquinas Grammar School",,54.5769788515,-5.91306355646,,,
10002346,"Ballynafeigh, Cherryvale Park",,54.5744882566,-5.91351571468,,,
10002347,"Ballynafeigh, Ormeau Park",,54.5817962207,-5.92143524511,,,
10002348,"Ballynafeigh, Ravenhill Park",,54.5792621239,-5.91257552637,,,
10002349,"Ballynafeigh, St Judes Crescentent",,54.5751447983,-5.91354404251,,,
10002350,"Ballynafeigh, St Judes Parade ",,54.5768019355,-5.91322730224,,,
10002351,"Ballynagard, Ballynagard",,55.0416886895,-7.27620255265,,,
10002352,"Ballynagard, Thornhill Park",,55.0417065638,-7.27618658446,,,
10002353,"Ballynahinch, 17-25 Lisburn Street",,54.4055639854,-5.90147503428,,,
10002354,"Ballynahinch, 23-31 Lisburn Street",,54.4064008491,-5.90360453822,,,
10002355,"Ballynahinch, Windmill Street",,54.4018752957,-5.8960870475,,,
10002356,"Ballynahinch, 27-35 Lisburn Street",,54.4069823121,-5.9044838359,,,
10002357,"Ballynahinch, 40-48 Ballynahinch Road",,54.4083190416,-5.90797460664,,,
10002358,"Ballynahinch, 52-60 Church Road",,54.3948769542,-5.88749688096,,,
10002361,"Ballynahinch, 81-89 Crossgar Road",,54.4040246707,-5.88126505466,,,
10002362,"Ballynahinch, Assumption",,54.4040361825,-5.89425102555,,,
10002363,"Ballynahinch, Back Spa Road",,54.3889049774,-5.88262952388,,,
10002364,"Ballynahinch, Main Street",,54.4031104224,-5.89682485635,,,
10002366,"Ballynahinch, Ballynahinch High",,54.4108337754,-5.89495030839,,,
10002367,"Ballynahinch, Ballynahinch Library",,54.4039426312,-5.89404014822,,,
10002368,"Ballynahinch, Blacks Lane",,54.4288603596,-5.8948429983,,,
10002369,"Ballynahinch, Bowling Green",,54.3978880414,-5.89368808852,,,
10002370,"Ballynahinch, Brymar",,54.4245003719,-5.89683903061,,,
10002371,"Ballynahinch, Burrows Lane",,54.4096008104,-5.89536785541,,,
10002372,"Ballynahinch, Carlisle Park",,54.3953594905,-5.88836539173,,,
10002373,"Ballynahinch, Carlisles",,54.3877465018,-5.88986515568,,,
10002374,"Ballynahinch, Carlisles",,54.3871423666,-5.89026573424,,,
10002375,"Ballynahinch, Croob Park",,54.4001375033,-5.90261475512,,,
10002376,"Ballynahinch, Crossgar Road",,54.4035995433,-5.88880462696,,,
10002377,"Ballynahinch, Dromore Road Corner",,54.4016059885,-5.92570769357,,,
10002378,"Ballynahinch, Dromore Street",,54.4004622063,-5.89751492962,,,
10002379,"Ballynahinch, Glassdrummond Blacks Lane",,54.4285101697,-5.89486095636,,,
10002380,"Ballynahinch, Grahams House",,54.4236276196,-5.88392180469,,,
10002381,"Ballynahinch, Knockdene Park",,54.4089290112,-5.90894499639,,,
10002382,"Ballynahinch, Langley Road",,54.4048472762,-5.90057190812,,,
10002383,"Ballynahinch, Mill Bridge",,54.3933963254,-5.8835224616,,,
10002384,"Ballynahinch, Millbridge",,54.3931962201,-5.88595074112,,,
10002385,"Ballynahinch, Millbrook Hotel",,54.3927225373,-5.88404998448,,,
10002386,"Ballynahinch, New Line",,54.4203657352,-5.89526309021,,,
10002387,"Ballynahinch, Newline",,54.4205162351,-5.89513208558,,,
10002388,"Ballynahinch, Old Lisburn Road",,54.4013352318,-5.91000921055,,,
10002389,"Ballynahinch, Old Saintfield Road Junction",,54.4041256027,-5.88138309193,,,
10002390,"Ballynahinch, Rock Cottage",,54.3892975936,-5.88913875741,,,
10002391,"Ballynahinch, Sheeplin",,54.4302786583,-5.89423073746,,,
10002392,"Ballynahinch, St Colmans Ballynahinch",,54.4037731234,-5.88742465636,,,
10002394,"Ballynahinch, Supervalu",,54.4029506733,-5.89797298368,,,
10002395,"Ballynahinch, The Bridge",,54.3938586459,-5.87914006547,,,
10002396,"Ballynahinch, The Lane",,54.4122139336,-5.91752961434,,,
10002397,"Ballynahinch, The Mill Brook",,54.391645648,-5.88362799948,,,
10002398,"Ballynahinch, Tullywest Road",,54.4328985406,-5.87499587591,,,
10002399,"Ballynahinch, Waterworks Gate",,54.4157333312,-5.92776796415,,,
10002400,"Ballynahinch, Windmill Gardens",,54.4035212491,-5.88843893021,,,
10002402,"Ballynameen, Brollys Lane",,54.9914775443,-6.70075930028,,,
10002404,"Ballynameen, Concrete Lane",,55.0083731275,-6.72657181452,,,
10002410,"Ballynameen, Straghans House",,54.9949773628,-6.710476639,,,
10002413,"Ballynamore, Main Road Tamnaherin",,54.9900821259,-7.18815783493,,,
10002414,"Ballynamore, Tamnaherin",,54.9927514797,-7.18425971554,,,
10002420,"Ballynashee House, Church Road",,54.827392579,-6.02884638079,,,
10002422,"Ballynashee House, Five Corners",,54.7721113368,-6.02356134077,,,
10002423,"Ballynashee House, Killylane Bridge",,54.8276533858,-6.01672353844,,,
10002424,"Ballynashee House, Killylane Bridge",,54.8282753041,-6.01958831723,,,
10002430,"Ballynashee House, Trenchill Road",,54.7716205325,-6.01991684217,,,
10002433,"Ballynoe, Ballynoe",,54.2922406735,-5.71831650835,,,
10002434,"Ballynoe, Ballyoe",,54.2919261656,-5.71879481704,,,
10002435,"Ballynoe, LegamaddyCorner",,54.2850789113,-5.72077091981,,,
10002436,"Ballynoe, Marshallstown",,54.2950895987,-5.71640732128,,,
10002437,"Ballynoe, Orrs House",,54.3087285734,-5.7156980881,,,
10002438,"Ballynure, Ballyboley Road Junction",,54.7920375747,-5.93579249547,,,
10002440,"Ballynure, Ballybracken Road Junction",,54.7875111481,-5.9401907018,,,
10002441,"Ballynure, Ballybracken Road Junction",,54.7876740884,-5.94026016973,,,
10002442,"Ballynure, Main Road",,54.7736539957,-5.95188546854,,,
10002444,"Ballynure, Ballynure Service Station",,54.7735335348,-5.95220245872,,,
10002445,"Ballynure, Ballyboley Road Junction",,54.7923874881,-5.93575910958,,,
10002452,"Ballynure, Larne Road",,54.7761651951,-5.94945772899,,,
10002453,"Ballynure, Larne Road ",,54.7945133056,-5.93341108771,,,
10002460,"Ballynure, Shannonstown",,54.7818278413,-5.94473988485,,,
10002462,"Ballynure, Templepatrick",,54.7683157554,-5.96040858349,,,
10002463,"Ballynure, Templepatrick Road",,54.7610504469,-5.97249143205,,,
10002464,"Ballynure, Templepatrick Road",,54.7602668742,-5.97346300964,,,
10002466,"Ballypatrick, Watertop Farm",,55.1730804702,-6.1353622428,,,
10002467,"Ballyreagh (Ballygawley), Ballyreagh Bridge",,54.4785773889,-6.99358999123,,,
10002468,"Ballyreagh (Ballygawley), Best Xrds",,54.4885542676,-6.95786137196,,,
10002469,"Ballyreagh (Ballygawley), Bests Xrds",,54.4886255302,-6.95883192732,,,
10002470,"Ballyreagh (Tempo), Ess Bridge",,54.3699863626,-7.51224177413,,,
10002471,"Ballyreagh (Ballygawley), Goans House",,54.489609935,-6.94902125683,,,
10002472,"Ballyreagh (Ballygawley), Innishmagh Cottages",,54.4772019437,-6.99675606096,,,
10002473,"Ballyreagh (Tempo), Largy Crossroads",,54.3641574117,-7.5499321738,,,
10002474,"Ballyreagh (Ballygawley), Martary Gospel Hall",,54.4718816156,-7.00208550033,,,
10002475,"Ballyreagh (Ballygawley), Patterson Sawmill",,54.486049726,-6.97073481465,,,
10002476,"Ballyreagh (Ballygawley), Pattersons Sawmills",,54.4859200918,-6.97133997217,,,
10002477,"Ballyreagh (Tempo), Phairs Gate",,54.3685295787,-7.53007914066,,,
10002478,"Ballyronan, Ballyronan",,54.708117417,-6.53269284117,,,
10002479,"Ballyronan, Salterstown Bridge",,54.6875548132,-6.53690920693,,,
10002480,"Ballyroney, Post Office",,54.2738622006,-6.12555641707,,,
10002481,"Ballyroney, Post Office",,54.2738580748,-6.1264472428,,,
10002482,"Ballyroney, Dougans Crossroads",,54.2644241481,-6.13937195744,,,
10002483,"Ballyroney, Dougans Corner",,54.2648308701,-6.13893912024,,,
10002484,"Ballyroney, High Road",,54.2817647606,-6.10905548318,,,
10002485,"Ballyroney, Hill Road",,54.281737503,-6.10960964914,,,
10002486,"Ballyroney, YoungsCorner",,54.2797061527,-6.11590732247,,,
10002487,"Ballysally, 23-31 Daneshill Road",,55.1443187241,-6.65719188278,,,
10002488,"Ballysally, 8-16 Cloyfin Road",,55.1426959512,-6.65588165618,,,
10002489,"Ballysally, Ballysally School",,55.1462090158,-6.65995220632,,,
10002490,"Ballysally, Gateside Road",,55.1625885515,-6.64126035962,,,
10002491,"Ballysally, Nd Stoop Ballysally",,55.1449441527,-6.65932004306,,,
10002492,"Ballysally, Parish Church",,55.1506138968,-6.65851800713,,,
10002493,"Ballysally, Right Price Carpets",,55.1436384833,-6.65417148274,,,
10002494,"Ballysally, Shop Ballysally",,55.1482473789,-6.65820520052,,,
10002496,"Ballysillan, Ballysillan Avenue",,54.6314177616,-5.97042729136,,,
10002497,"Ballysillan, Ballysillan Drive",,54.6296178274,-5.96813146456,,,
10002498,"Ballysillan, Ballysillan Leisure Centre",,54.6243129116,-5.97011512531,,,
10002499,"Ballysillan, Ballysillan Road",,54.6297685835,-5.96319806741,,,
10002500,"Ballysillan, Bilston Road",,54.6234962732,-5.97286615972,,,
10002501,"Ballysillan, Boys' Model School",,54.6314920175,-5.95987432704,,,
10002502,"Ballysillan, Carr's Glen",,54.630476372,-5.96200090244,,,
10002503,"Ballysillan, Churchview",,54.6283601121,-5.96655227434,,,
10002504,"Ballysillan, Clareglen",,54.630318847,-5.9686696525,,,
10002505,"Ballysillan, Formby Park",,54.6279518968,-5.96525603705,,,
10002506,"Ballysillan, Glenbank Corner",,54.6229875349,-5.9762987301,,,
10002507,"Ballysillan, Glenside Park",,54.6207015163,-5.97556045685,,,
10002509,"Ballysillan, Leggagh Court",,54.6240475445,-5.97573499423,,,
10002510,"Ballysillan, Oldpark Shops",,54.6263879326,-5.96524119111,,,
10002511,"Ballysillan, Silverstream (Ballysillan Park)",,54.631550895,-5.97032771472,,,
10002512,"Ballysillan, Silverstream Gardens",,54.6254788684,-5.96836880065,,,
10002513,"Ballysillan, Springval Gardens",,54.6238985469,-5.9781120463,,,
10002514,"Ballysillan, Springvale Gardens",,54.6237868473,-5.97734319375,,,
10002515,"Ballysillan, Tedburn Park",,54.6243431858,-5.97460516762,,,
10002516,"Ballysillan, Wallasey Park",,54.6288506148,-5.96418883181,,,
10002517,"Ballysillan, Wheatfield Gardens",,54.6191082055,-5.97325472447,,,
10002518,"Ballystrudder, 4-12 Ballystrudder Road",,54.7783300614,-5.71319875127,,,
10002519,"Ballystrudder, Duffs Corner",,54.7775316395,-5.71327490598,,,
10002520,"Ballystrudder, The Rhinka",,54.7786661608,-5.70767580789,,,
10002523,"Ballyvelton, Ballyrashane Church",,55.1395550861,-6.60427285145,,,
10002524,"Ballyvelton, Boghill Road",,55.1372264116,-6.62628091063,,,
10002525,"Ballyvelton, Boghill Road End",,55.137144899,-6.62702087448,,,
10002526,"Ballyvelton, Liswatty Road",,55.1381822355,-6.59116120211,,,
10002527,"Ballyvelton, Liswatty Road End",,55.1383814601,-6.59129534817,,,
10002528,"Ballyvoy, Ballypatrick Forest Office",,55.1831720346,-6.15547847148,,,
10002529,"Ballyvoy, Ballyvoy Chapel",,55.1996765114,-6.19070739159,,,
10002530,"Ballyvoy, Ballyvoy Corner",,55.1997834739,-6.18762335717,,,
10002533,"Ballyvoy, Glenmakeeran Road",,55.1909752658,-6.16823295862,,,
10002535,"Ballywalter, 12-20 Park Avenue",,54.5424761502,-5.48897372586,,,
10002536,"Ballywalter, 2-10 Broadway",,54.5464007559,-5.48622801825,,,
10002537,"Ballywalter, 34-42 Dunover Road",,54.5491693999,-5.49100530348,,,
10002538,"Ballywalter, 6-14 Broadway",,54.5466495288,-5.48608903237,,,
10002539,"Ballywalter, Bairdstown Road",,54.5568641781,-5.48111500335,,,
10002540,"Ballywalter, Ballyatwood",,54.5370968025,-5.51004701931,,,
10002541,"Ballywalter, Ballyatwood Corner",,54.5369371304,-5.51014948424,,,
10002542,"Ballywalter, Ballyferris",,54.5735738656,-5.49111459406,,,
10002543,"Ballywalter, Bowling Club",,54.5364201512,-5.48517247988,,,
10002544,"Ballywalter, Car Park",,54.5532814093,-5.48300589394,,,
10002545,"Ballywalter, Donover Corner",,54.556457726,-5.52015572953,,,
10002546,"Ballywalter, Main Street",,54.5432477104,-5.48458232911,,,
10002547,"Ballywalter, Park  Avenue",,54.5425005144,-5.48884855891,,,
